{"version": 0.6, "generator": "Overpass API 0.7.62.5 1bd436f1", "osm3s": {"timestamp_osm_base": "2025-04-11T09:47:21Z", "copyright": "The data included in this document is from www.openstreetmap.org. The data is made available under ODbL."}, "elements": [{"type": "node", "id": 15415845, "lat": 51.5386029, "lon": -0.1491858}, {"type": "node", "id": 15415851, "lat": 51.5381201, "lon": -0.1495841}, {"type": "node", "id": 25817822, "lat": 51.5403085, "lon": -0.1415775}, {"type": "node", "id": 25823329, "lat": 51.5395423, "lon": -0.1422626}, {"type": "node", "id": 25825625, "lat": 51.5403517, "lon": -0.141459, "tags": {"barrier": "gate", "bicycle": "no", "foot": "yes", "horse": "no", "motor_vehicle": "no"}}, {"type": "node", "id": 25831022, "lat": 51.5399895, "lon": -0.1429967}, {"type": "node", "id": 25831302, "lat": 51.5410872, "lon": -0.1466139, "tags": {"addr:city": "London", "addr:housenumber": "78\u201389", "addr:postcode": "NW1 8AF", "addr:street": "Camden Lock Place", "amenity": "bar", "level": "1", "name": "Lockside Lounge", "opening_hours": "Su-We 12:00-22:00; Th-Fr 12:00-23:00; Sa 11:00-00:00", "phone": "02072840007", "website": "https://www.camdenlockside.co.uk/", "wheelchair": "limited"}}, {"type": "node", "id": 25831313, "lat": 51.5412394, "lon": -0.14576, "tags": {"addr:city": "London", "addr:housenumber": "11", "addr:postcode": "NW1 8AB", "addr:street": "Camden Lock Place", "amenity": "bar", "level": "1", "name": "Lock 17", "website": "http://www.lock17-camden.co.uk", "wheelchair": "yes"}}, {"type": "node", "id": 25868920, "lat": 51.5419244, "lon": -0.1474128}, {"type": "node", "id": 26610585, "lat": 51.5377753, "lon": -0.144383}, {"type": "node", "id": 26610587, "lat": 51.5394566, "lon": -0.1446078, "tags": {"addr:city": "London", "addr:housenumber": "30", "addr:postcode": "NW1 7HB", "addr:street": "Inverness Street", "amenity": "pub", "check_date": "2024-04-26", "fhrs:id": "1492504", "historic": "monument", "name": "The Good Mixer", "source:addr": "FHRS Open Data"}}, {"type": "node", "id": 26610590, "lat": 51.5405479, "lon": -0.1443341, "tags": {"addr:city": "London", "addr:housenumber": "265", "addr:postcode": "NW1 7BU", "addr:street": "Camden High Street", "amenity": "pub", "contact:facebook": "oxfordarms", "contact:instagram": "explore/locations/227378938", "contact:phone": "+44 20 7267 4945", "contact:twitter": "oxfordarms", "contact:website": "https://oxfordarmscamden.co.uk", "fhrs:id": "423942", "internet_access": "wlan", "name": "The Oxford Arms", "opening_hours": "Fr-Sa 12:00-02:00; Su-Th 12:00-01:00", "source:addr": "FHRS Open Data", "toilets": "yes", "toilets:access": "customers", "wheelchair": "limited"}}, {"type": "node", "id": 26610612, "lat": 51.5411992, "lon": -0.1458705, "tags": {"addr:city": "London", "addr:housenumber": "38", "addr:postcode": "NW1 8AF", "addr:street": "Middle Yard, Camden Lock Place", "amenity": "bar", "level": "0", "name": "Canalside Bar", "wheelchair": "yes"}}, {"type": "node", "id": 26618618, "lat": 51.53781, "lon": -0.1420408, "tags": {"addr:city": "London", "addr:housenumber": "143-151", "addr:postcode": "NW1 7JX", "addr:street": "Camden High Street", "brand": "M&S Foodhall", "brand:wikidata": "Q714491", "brand:wikipedia": "en:Marks & Spencer", "check_date": "2024-07-21", "check_date:opening_hours": "2024-07-21", "contact:website": "https://www.marksandspencer.com/stores/camden-town-simply-food-291", "fhrs:id": "425546", "name": "M&S Foodhall", "opening_hours": "Mo-Sa 08:00-21:00; Su 12:00-18:00", "shop": "supermarket", "source:addr": "FSA Food Hygiene Rating Scheme open data", "wheelchair": "yes"}}, {"type": "node", "id": 60973762, "lat": 51.5423707, "lon": -0.1472303, "tags": {"barrier": "gate"}}, {"type": "node", "id": 60973769, "lat": 51.5418594, "lon": -0.1461145, "tags": {"barrier": "gate"}}, {"type": "node", "id": 260283878, "lat": 51.540145, "lon": -0.1439007, "tags": {"addr:city": "London", "addr:country": "GB", "addr:housenumber": "239", "addr:postcode": "NW1 7BU", "addr:street": "Camden High Street", "alt_name": "Kentucky Fried Chicken", "amenity": "fast_food", "brand": "KFC", "brand:wikidata": "Q524757", "brand:wikipedia": "en:KFC", "contact:website": "https://www.kfc.co.uk/kfc-near-me/camden-high-street", "cuisine": "chicken", "drive_through": "no", "fhrs:id": "424093", "name": "KFC", "source:addr": "FSA Food Hygiene Rating Scheme open data", "takeaway": "yes", "toilets:wheelchair": "no", "wheelchair": "no"}}, {"type": "node", "id": 262725495, "lat": 51.5374576, "lon": -0.1454959}, {"type": "node", "id": 264904797, "lat": 51.5379807, "lon": -0.148857, "tags": {"amenity": "car_sharing", "capacity": "1", "operator": "Zipcar", "operator:wikidata": "Q1069924", "source": "WebSite"}}, {"type": "node", "id": 293390023, "lat": 51.5391106, "lon": -0.1441208, "tags": {"addr:city": "London", "addr:housenumber": "180", "addr:postcode": "NW1 7HL", "addr:street": "Arlington Road", "amenity": "gambling", "brand": "Mecca Bingo", "brand:wikidata": "Q39738082", "brand:wikipedia": "en:Mecca Bingo", "check_date": "2024-04-26", "gambling": "bingo", "name": "Mecca Bingo", "source:addr:postcode": "FSA Food Hygiene Rating Scheme open data"}}, {"type": "node", "id": 293390260, "lat": 51.5389171, "lon": -0.1418712, "tags": {"amenity": "pub", "name": "The Black Heart", "wheelchair": "no"}}, {"type": "node", "id": 293990348, "lat": 51.5393063, "lon": -0.1427663}, {"type": "node", "id": 293990489, "lat": 51.5390615, "lon": -0.1430311}, {"type": "node", "id": 294001546, "lat": 51.5382684, "lon": -0.1423677, "tags": {"addr:city": "London", "addr:housenumber": "171", "addr:postcode": "NW1 7JY", "addr:street": "Camden High Street", "amenity": "disused", "name": "The Black Cap", "website": "http://www.theblackcap.com", "wheelchair": "limited", "wikidata": "Q7718272"}}, {"type": "node", "id": 294141498, "lat": 51.538277, "lon": -0.1444136}, {"type": "node", "id": 296889738, "lat": 51.5400479, "lon": -0.1421041, "tags": {"amenity": "nightclub", "name": "Bar Monsta", "source": "TMJ-Mobile_0.6.2"}}, {"type": "node", "id": 296889739, "lat": 51.5410234, "lon": -0.1422269}, {"type": "node", "id": 296891969, "lat": 51.5391316, "lon": -0.1422001, "tags": {"addr:city": "London", "addr:housenumber": "174", "addr:postcode": "NW1 0NE", "addr:street": "Camden High Street", "amenity": "pub", "brewery": "yes", "check_date": "2023-09-19", "fhrs:id": "425579", "level": "0", "name": "The World's End", "payment:credit_cards": "yes", "payment:debit_cards": "yes", "payment:mastercard": "yes", "payment:visa": "yes", "source": "survey", "source:addr:postcode": "FSA Food Hygiene Rating Scheme open data", "wheelchair": "limited", "wikidata": "Q7775871", "wikipedia": "en:The World's End, Camden"}}, {"type": "node", "id": 300500878, "lat": 51.5402228, "lon": -0.1452722, "tags": {"amenity": "restaurant", "brand": "Wagamama", "brand:wikidata": "Q503715", "brand:wikipedia": "en:Wagamama", "cuisine": "asian", "name": "Wagamama", "source": "TMJ-Mobile_0.6.2", "website": "https://wagamama.com/restaurants/london/camden", "wheelchair": "yes"}}, {"type": "node", "id": 301106728, "lat": 51.538323, "lon": -0.1493155}, {"type": "node", "id": 301106729, "lat": 51.5381731, "lon": -0.1490597}, {"type": "node", "id": 301106730, "lat": 51.537996, "lon": -0.1492941}, {"type": "node", "id": 387690502, "lat": 51.5406973, "lon": -0.1446491, "tags": {"addr:city": "London", "addr:housenumber": "2-2A", "addr:postcode": "NW1 7BY", "addr:street": "Jamestown Road", "amenity": "restaurant", "contact:phone": "+44 20 3355 7756", "contact:website": "https://camdendiner.com", "cuisine": "american", "fhrs:id": "1498737", "internet_access": "wlan", "name": "Camden Diner", "opening_hours": "Fr-Sa 09:00-00:00; Su-Th 09:00-23:00", "outdoor_seating": "yes", "source:addr": "FHRS Open Data", "wheelchair": "limited"}}, {"type": "node", "id": 389641451, "lat": 51.5395748, "lon": -0.1419774}, {"type": "node", "id": 390407072, "lat": 51.5376659, "lon": -0.1414136, "tags": {"amenity": "post_box", "brand": "Royal Mail", "brand:wikidata": "Q638098", "check_date": "2024-12-20", "collection_plate": "CP1", "collection_times": "Mo-Fr 17:30; Sa 12:00", "colour": "red", "manufacturer": "McDowall, Steven & Co Ltd\nLondon & Falkirk", "operator": "Royal Mail", "operator:wikidata": "Q638098", "post_box:apertures": "2", "post_box:design": "type_c", "post_box:type": "pillar", "ref": "NW1 311;NW1 31", "royal_cypher": "EIIR", "royal_cypher:wikidata": "Q33102113", "source": "survey", "wikimedia_commons": "Category:United Kingdom post box NW1 311 and NW1 31"}}, {"type": "node", "id": 390407349, "lat": 51.537491, "lon": -0.1416169}, {"type": "node", "id": 390924209, "lat": 51.5376109, "lon": -0.1413337}, {"type": "node", "id": 390924458, "lat": 51.5377008, "lon": -0.1419012, "tags": {"addr:housenumber": "139", "addr:street": "Camden High Street", "amenity": "pharmacy", "healthcare": "pharmacy", "name": "JP Pharmacy", "wheelchair": "yes"}}, {"type": "node", "id": 390924493, "lat": 51.5380936, "lon": -0.1421978, "tags": {"addr:city": "London", "addr:country": "GB", "addr:housenumber": "157", "addr:postcode": "NW1 7JY", "addr:street": "Camden High Street", "amenity": "fast_food", "brand": "Pret A Manger", "brand:wikidata": "Q2109109", "brand:wikipedia": "en:Pret a Manger", "contact:website": "https://locations.pret.co.uk/london/157-camden-high-street", "cuisine": "sandwich", "fhrs:id": "425560", "name": "Pret A Manger", "short_name": "Pret", "takeaway": "yes", "wheelchair": "yes"}}, {"type": "node", "id": 390924597, "lat": 51.5384524, "lon": -0.142509, "tags": {"addr:city": "London", "addr:housenumber": "177", "addr:postcode": "NW1 7JY", "addr:street": "Camden High Street", "check_date": "2023-09-19", "contact:phone": "+44 20 7485 2575", "fhrs:id": "425580", "level": "0", "name": "Martin's Butchers", "shop": "butcher", "source:addr": "FSA Food Hygiene Rating Scheme open data", "wheelchair": "yes"}}, {"type": "node", "id": 390924741, "lat": 51.5386625, "lon": -0.1426612, "tags": {"addr:city": "London", "addr:housenumber": "185", "addr:postcode": "NW1 7JY", "addr:street": "Camden High Street", "amenity": "fast_food", "branch": "Sushi & Bento", "brand": "Wasabi", "brand:wikidata": "Q23891278", "brewery": "no", "check_date": "2023-09-19", "cuisine": "japanese", "diet:vegan": "yes", "diet:vegetarian": "yes", "fhrs:id": "425454", "level": "0", "name": "Wasabi", "outdoor_seating": "no", "payment:credit_cards": "yes", "payment:debit_cards": "yes", "payment:mastercard": "yes", "payment:visa": "yes", "smoking": "no", "source": "survey", "takeaway": "yes", "website": "https://www.wasabi.uk.com/branches/1644", "wheelchair": "yes"}}, {"type": "node", "id": 390924862, "lat": 51.5386802, "lon": -0.1432647}, {"type": "node", "id": 390925025, "lat": 51.5392103, "lon": -0.1420652, "tags": {"amenity": "fast_food", "check_date": "2023-09-19", "cuisine": "kebab", "diet:vegetarian": "yes", "drive_through": "no", "level": "0", "name": "King of Falafel", "outdoor_seating": "yes", "payment:credit_cards": "yes", "payment:debit_cards": "yes", "payment:mastercard": "yes", "payment:visa": "yes", "smoking": "outside", "source": "survey", "takeaway": "yes", "wheelchair": "no"}}, {"type": "node", "id": 390925087, "lat": 51.5392946, "lon": -0.1419363, "tags": {"addr:city": "London", "addr:housenumber": "4", "addr:postcode": "NW1 9DL", "addr:street": "Camden Road", "amenity": "fast_food", "brand": "Subway", "brand:wikidata": "Q244457", "brand:wikipedia": "en:Subway (restaurant)", "check_date": "2023-09-19", "contact:website": "https://restaurants.subway.com/united-kingdom/en/london/86-high-street", "cuisine": "sandwich", "diet:vegan": "yes", "diet:vegetarian": "yes", "drive_through": "no", "fhrs:id": "425131", "level": "0", "name": "Subway", "payment:credit_cards": "yes", "payment:debit_cards": "yes", "payment:mastercard": "yes", "payment:visa": "yes", "smoking": "no", "source": "survey", "source:addr:postcode": "FSA Food Hygiene Rating Scheme open data", "takeaway": "yes", "wheelchair": "limited"}}, {"type": "node", "id": 390925127, "lat": 51.5393387, "lon": -0.1418595, "tags": {"addr:city": "London", "addr:housenumber": "6", "addr:street": "Camden Road", "amenity": "fast_food", "check_date": "2023-09-19", "level": "0", "name": "L'Amentine"}}, {"type": "node", "id": 390925128, "lat": 51.5394804, "lon": -0.142523, "tags": {"amenity": "fast_food", "check_date": "2023-09-19", "level": "0", "name": "Grill Kebab House", "wheelchair": "no"}}, {"type": "node", "id": 390925205, "lat": 51.5396753, "lon": -0.1424368}, {"type": "node", "id": 390925370, "lat": 51.5390766, "lon": -0.1429655, "tags": {"addr:housenumber": "193", "addr:street": "Camden High Street", "amenity": "bank", "brand": "Barclays", "brand:wikidata": "Q245343", "brand:wikipedia": "en:Barclays", "check_date": "2024-04-26", "name": "Barclays", "operator": "Barclays Bank PLC", "wheelchair": "yes"}}, {"type": "node", "id": 390925520, "lat": 51.5388985, "lon": -0.1431887}, {"type": "node", "id": 390925784, "lat": 51.5387275, "lon": -0.1439703}, {"type": "node", "id": 390925894, "lat": 51.5384681, "lon": -0.1441612}, {"type": "node", "id": 390926670, "lat": 51.538212, "lon": -0.1444994}, {"type": "node", "id": 430832360, "lat": 51.5390929, "lon": -0.1421161, "tags": {"addr:city": "London", "addr:country": "GB", "addr:housenumber": "174", "addr:postcode": "NW1 0NE", "addr:street": "Camden High St", "amenity": "nightclub", "check_date": "2023-09-19", "level": "0", "name": "The Underworld", "wheelchair": "no", "wikidata": "Q5025824"}}, {"type": "node", "id": 434557524, "lat": 51.5386404, "lon": -0.1435299, "tags": {"amenity": "post_box", "brand": "Royal Mail", "brand:wikidata": "Q638098", "brand:wikipedia": "en:Royal Mail", "collection_plate": "CP1", "collection_times": "Mo-Fr 09:00; Sa 07:00", "colour": "red", "operator": "Royal Mail", "operator:wikidata": "Q638098", "post_box:apertures": "2", "post_box:design": "type_c", "post_box:type": "pillar", "ref": "NW1 5;NW1 190", "royal_cypher": "EIIR", "royal_cypher:wikidata": "Q33102113", "wikimedia_commons": "Category:United Kingdom post box NW1 x 15 Parkway"}}, {"type": "node", "id": 560040794, "lat": 51.5422203, "lon": -0.1474331, "tags": {"addr:city": "London", "addr:country": "GB", "addr:county": "Hampshire", "addr:place": "Camden Town", "addr:postcode": "NW1 8AH", "addr:street": "The Stables Market", "name": "Cyberdog", "opening_hours": "Mo-Th 11:00-19:30; Fr 11:00-20:00; Sa, Su 10:00-20:00", "operator": "Cyberdog UK Ltd", "phone": "+44 20 7482 2842", "shop": "clothes", "tourism": "attraction", "website": "https://cyberdog.net/", "wheelchair": "limited", "wikidata": "Q5197771"}}, {"type": "node", "id": 620075777, "lat": 51.5425647, "lon": -0.1471191}, {"type": "node", "id": 620075853, "lat": 51.5430207, "lon": -0.1482389}, {"type": "node", "id": 674932929, "lat": 51.5380445, "lon": -0.1451844}, {"type": "node", "id": 674932936, "lat": 51.5383676, "lon": -0.1449315}, {"type": "node", "id": 674932937, "lat": 51.5385722, "lon": -0.1451629}, {"type": "node", "id": 674932946, "lat": 51.5403666, "lon": -0.1482734}, {"type": "node", "id": 674934930, "lat": 51.542038, "lon": -0.1479363}, {"type": "node", "id": 674934932, "lat": 51.5423544, "lon": -0.1471781}, {"type": "node", "id": 674934935, "lat": 51.5418369, "lon": -0.1467034}, {"type": "node", "id": 674934936, "lat": 51.5418353, "lon": -0.1460757}, {"type": "node", "id": 674934939, "lat": 51.5416324, "lon": -0.1446064}, {"type": "node", "id": 674934942, "lat": 51.5418954, "lon": -0.1443219}, {"type": "node", "id": 674934943, "lat": 51.541875, "lon": -0.1436197}, {"type": "node", "id": 674934978, "lat": 51.5428511, "lon": -0.1491078}, {"type": "node", "id": 674934979, "lat": 51.5424814, "lon": -0.1494036}, {"type": "node", "id": 674934986, "lat": 51.5426147, "lon": -0.1479817}, {"type": "node", "id": 729647049, "lat": 51.5419332, "lon": -0.1453963}, {"type": "node", "id": 729647070, "lat": 51.5427775, "lon": -0.1452722}, {"type": "node", "id": 729647071, "lat": 51.542691, "lon": -0.1449564}, {"type": "node", "id": 729647073, "lat": 51.5425733, "lon": -0.1449501}, {"type": "node", "id": 729647074, "lat": 51.5425373, "lon": -0.1451458}, {"type": "node", "id": 729647075, "lat": 51.5426794, "lon": -0.1453705}, {"type": "node", "id": 729647077, "lat": 51.5425981, "lon": -0.1448045}, {"type": "node", "id": 729647078, "lat": 51.5428133, "lon": -0.1453576}, {"type": "node", "id": 729647080, "lat": 51.5425421, "lon": -0.1458973}, {"type": "node", "id": 729647081, "lat": 51.5422375, "lon": -0.1453141}, {"type": "node", "id": 729647083, "lat": 51.5425366, "lon": -0.14489}, {"type": "node", "id": 729647097, "lat": 51.5428236, "lon": -0.1453792}, {"type": "node", "id": 931543411, "lat": 51.5415154, "lon": -0.1448989}, {"type": "node", "id": 931609079, "lat": 51.5396942, "lon": -0.1418086}, {"type": "node", "id": 931613638, "lat": 51.5400373, "lon": -0.143804, "tags": {"addr:housenumber": "235", "addr:street": "Inverness Rd", "name": "Camden Jeans Co.", "shop": "clothes", "wheelchair": "yes"}}, {"type": "node", "id": 931615027, "lat": 51.5402456, "lon": -0.1423577}, {"type": "node", "id": 931616964, "lat": 51.5387309, "lon": -0.1443027, "tags": {"addr:housenumber": "177", "addr:street": "Arlington Road", "name": "Gecko", "shop": "hairdresser", "wheelchair": "no"}}, {"type": "node", "id": 931617012, "lat": 51.5396718, "lon": -0.1413352, "tags": {"addr:city": "London", "addr:housenumber": "18a", "addr:street": "Camden Road", "name": "Camden Household", "shop": "general"}}, {"type": "node", "id": 931617145, "lat": 51.5397319, "lon": -0.1412226, "tags": {"addr:city": "London", "addr:housenumber": "20", "addr:street": "Camden Road", "check_date": "2024-07-25", "name": "Mind in Camden", "shop": "charity"}}, {"type": "node", "id": 931617888, "lat": 51.5397886, "lon": -0.1410992, "tags": {"addr:city": "London", "addr:housenumber": "22", "addr:street": "Camden Road", "male": "yes", "name": "Camden Barbers", "phone": "+44 20 3662 5328", "shop": "hairdresser"}}, {"type": "node", "id": 931618174, "lat": 51.5405433, "lon": -0.1435312, "tags": {"name": "Needle FX", "shop": "tattoo"}}, {"type": "node", "id": 931618176, "lat": 51.541236, "lon": -0.1433618, "tags": {"amenity": "studio", "name": "MTV", "operator": "Viacom International Media Networks", "studio": "television", "website": "http://www.mtvnetworksdigital.co.uk/"}}, {"type": "node", "id": 931619802, "lat": 51.539862, "lon": -0.1409168, "tags": {"addr:city": "London", "addr:housenumber": "24", "addr:street": "Camden Road", "healthcare": "alternative", "name": "China Remedy", "shop": "healthcare", "speciality": "herbalism"}}, {"type": "node", "id": 931620991, "lat": 51.5399554, "lon": -0.1407022, "tags": {"addr:city": "London", "addr:housenumber": "28", "addr:street": "Camden Road", "name": "Flickers", "phone": "+44 204850066", "shop": "hairdresser"}}, {"type": "node", "id": 931621169, "lat": 51.5385352, "lon": -0.1440725}, {"type": "node", "id": 931621507, "lat": 51.5400055, "lon": -0.1405896, "tags": {"addr:city": "London", "addr:housenumber": "30", "addr:street": "Camden Road", "amenity": "cafe", "name": "Camden Coffee House", "note": "Free WiFi"}}, {"type": "node", "id": 931622064, "lat": 51.5400488, "lon": -0.140493, "tags": {"addr:city": "London", "addr:housenumber": "32", "addr:street": "Camden Road", "name": "Greendoor Accessories Ltd", "shop": "general"}}, {"type": "node", "id": 931622813, "lat": 51.5400989, "lon": -0.1404018, "tags": {"addr:city": "London", "addr:street": "Camden Road", "knowledge": "Oyster topup and Epay", "name": "Your Local", "shop": "newsagent", "source": "knowledge"}}, {"type": "node", "id": 931624349, "lat": 51.5389741, "lon": -0.1437574, "tags": {"addr:city": "London", "addr:housenumber": "14", "addr:postcode": "NW1 7AA", "addr:street": "Parkway", "amenity": "cinema", "brand": "Odeon", "brand:wikidata": "Q6127470", "brand:wikipedia": "en:Odeon Cinemas", "contact:website": "https://www.odeon.co.uk/cinemas/camden/", "fhrs:id": "424604", "name": "Odeon", "source:addr:postcode": "FSA Food Hygiene Rating Scheme open data", "wheelchair": "yes"}}, {"type": "node", "id": 931624905, "lat": 51.5387162, "lon": -0.143703}, {"type": "node", "id": 931624906, "lat": 51.5388876, "lon": -0.1432142}, {"type": "node", "id": 931625768, "lat": 51.5396407, "lon": -0.1439585, "tags": {"addr:housenumber": "10", "addr:street": "Inverness Road", "amenity": "bar", "name": "Out on the Floor", "wheelchair": "no"}}, {"type": "node", "id": 931625776, "lat": 51.5397399, "lon": -0.1436627, "tags": {"addr:housenumber": "2", "addr:street": "Inverness Road", "amenity": "bar", "name": "Gansa", "wheelchair": "no"}}, {"type": "node", "id": 931625778, "lat": 51.5397328, "lon": -0.1436895, "tags": {"addr:housenumber": "4", "addr:street": "Inverness Road", "amenity": "bar", "name": "Uno"}}, {"type": "node", "id": 931625780, "lat": 51.5397194, "lon": -0.1437297, "tags": {"addr:housenumber": "6", "addr:street": "Inverness Road", "amenity": "bar", "name": "Vinyi", "wheelchair": "no"}}, {"type": "node", "id": 931625783, "lat": 51.5399309, "lon": -0.1437054, "tags": {"addr:housenumber": "229", "addr:street": "Chalk Farm Rd", "name": "CHROME", "note": "tattoo and body piercing", "shop": "tattoo"}}, {"type": "node", "id": 931625784, "lat": 51.5398921, "lon": -0.1436699, "tags": {"addr:city": "London", "addr:housenumber": "227", "addr:postcode": "NW1 7BU", "addr:street": "Camden High Street", "fhrs:id": "424092", "name": "Camden News", "shop": "newsagent", "source:addr": "FSA Food Hygiene Rating Scheme open data"}}, {"type": "node", "id": 931625785, "lat": 51.5398576, "lon": -0.1436491, "tags": {"addr:housenumber": "225", "addr:street": "Chalk Farm Rd", "name": "Rokit True Vintage", "shop": "clothes"}}, {"type": "node", "id": 931625787, "lat": 51.5398217, "lon": -0.1436122, "tags": {"addr:housenumber": "223", "addr:street": "Chalk Farm Rd", "name": "House of Leather", "shop": "leather"}}, {"type": "node", "id": 931625788, "lat": 51.5397714, "lon": -0.143569, "tags": {"addr:housenumber": "221", "addr:street": "Chalk Farm Rd", "name": "Offspring", "shop": "clothes", "wheelchair": "yes"}}, {"type": "node", "id": 931625791, "lat": 51.5401058, "lon": -0.1438733, "tags": {"addr:city": "London", "addr:housenumber": "237", "addr:postcode": "NW1 7BU", "addr:street": "Camden High Street", "amenity": "ice_cream", "brand": "Amorino", "brand:wikidata": "Q2843884", "brand:wikipedia": "fr:Amorino", "contact:phone": "+44 20 7482 5416", "contact:website": "https://www.amorino.com/en/shop/london-camden.185.html", "fhrs:id": "1049944", "name": "Amorino", "outdoor_seating": "no", "source:addr": "FHRS Open Data", "takeaway": "yes"}}, {"type": "node", "id": 931625792, "lat": 51.5399869, "lon": -0.1437493, "tags": {"addr:city": "London", "addr:country": "GB", "addr:housenumber": "231,233", "addr:postcode": "NW1 7BU", "addr:street": "Camden High Street", "amenity": "fast_food", "brand": "Pret A Manger", "brand:wikidata": "Q2109109", "brand:wikipedia": "en:Pret a Manger", "cuisine": "sandwich", "drive_through": "no", "fhrs:id": "1152018", "name": "Pret A Manger", "short_name": "Pret", "takeaway": "yes", "wheelchair": "yes"}}, {"type": "node", "id": 931627386, "lat": 51.5419266, "lon": -0.140843, "tags": {"name": "Warren Evans", "phone": "+44 20 7693 9393", "shop": "furniture"}}, {"type": "node", "id": 931627514, "lat": 51.5422785, "lon": -0.1407713, "tags": {"amenity": "parking", "name": "Warren Evans car park"}}, {"type": "node", "id": 931630783, "lat": 51.5419243, "lon": -0.1418587}, {"type": "node", "id": 931630785, "lat": 51.5424843, "lon": -0.1417774}, {"type": "node", "id": 931630786, "lat": 51.5417359, "lon": -0.1410423}, {"type": "node", "id": 931631872, "lat": 51.5395671, "lon": -0.1441708, "tags": {"addr:housenumber": "16", "addr:street": "Inverness Road", "amenity": "bar", "name": "Iensai", "wheelchair": "limited"}}, {"type": "node", "id": 931631873, "lat": 51.5395507, "lon": -0.1442181, "tags": {"addr:city": "London", "addr:housenumber": "18", "addr:postcode": "NW1 7HJ", "addr:street": "Inverness Street", "alt_name": "Mega City Comics", "books": "comic", "name": "Forbidden Planet Camden", "old_name": "Mega City Comics", "shop": "books", "website": "https://forbiddenplanet.com/stores/"}}, {"type": "node", "id": 931631875, "lat": 51.5394999, "lon": -0.1443646, "tags": {"addr:city": "London", "addr:housenumber": "24", "addr:postcode": "NW1 7HJ", "addr:street": "Inverness Street", "amenity": "restaurant", "check_date": "2024-04-26", "fhrs:id": "424998", "name": "Hache", "source:addr": "FHRS Open Data"}}, {"type": "node", "id": 931632245, "lat": 51.5394612, "lon": -0.1444852, "tags": {"addr:street": "Inverness Road", "check_date": "2024-04-26", "name": "Nemesis Tattoo", "shop": "tattoo"}}, {"type": "node", "id": 931632440, "lat": 51.5391054, "lon": -0.1429928, "tags": {"addr:street": "Camden High Street", "brand": "Vans", "brand:wikidata": "Q1135366", "brand:wikipedia": "en:Vans", "check_date": "2024-04-26", "name": "Vans", "shop": "shoes", "wheelchair": "no"}}, {"type": "node", "id": 931632667, "lat": 51.5391387, "lon": -0.143019, "tags": {"addr:street": "Camden High Street", "amenity": "bank", "name": "Barclays", "note": "previously American Apparel"}}, {"type": "node", "id": 931632809, "lat": 51.5391827, "lon": -0.1430671, "tags": {"addr:street": "Camden High Street", "brand": "Ryman", "brand:wikidata": "Q7385188", "brand:wikipedia": "en:Ryman", "name": "Ryman", "shop": "stationery", "wheelchair": "no"}}, {"type": "node", "id": 931633008, "lat": 51.5392525, "lon": -0.1431308, "tags": {"addr:city": "London", "addr:housenumber": "201", "addr:postcode": "NW1 7BT", "addr:street": "Camden High Street", "brand": "Superdrug", "brand:wikidata": "Q7643261", "brand:wikipedia": "en:Superdrug", "fhrs:id": "425589", "name": "Superdrug", "shop": "chemist", "source:addr": "FSA Food Hygiene Rating Scheme open data", "wheelchair": "yes"}}, {"type": "node", "id": 931633668, "lat": 51.5396218, "lon": -0.144013, "tags": {"addr:city": "London", "addr:housenumber": "12", "addr:postcode": "NW1 7HJ", "addr:street": "Inverness Street", "amenity": "restaurant", "bar": "yes", "contact:instagram": "madeinbrasiluk", "contact:phone": "+44 20 7482 0777", "contact:website": "https://madeinbrasil.co.uk/", "cuisine": "brazilian", "fhrs:id": "470897", "name": "Made in Brasil", "opening_hours": "Su-Th 12:00-00:00; Fr-Sa 12:00-02:00", "source:addr": "FHRS Open Data", "wheelchair": "no"}}, {"type": "node", "id": 931634225, "lat": 51.5393072, "lon": -0.1431807, "tags": {"addr:city": "London", "addr:housename": "Plaza House", "addr:housenumber": "191-209", "addr:postcode": "NW1 7PJ", "addr:street": "Camden High Street", "brand": "Holland & Barrett", "brand:wikidata": "Q5880870", "brand:wikipedia": "en:Holland & Barrett", "fhrs:id": "426173", "name": "Holland & Barrett", "opening_hours": "Mo-Sa 08:00-20:30; Su 08:00-20:00", "shop": "health_food", "source:addr": "FHRS Open Data", "wheelchair": "yes"}}, {"type": "node", "id": 931634880, "lat": 51.539371, "lon": -0.1432388, "tags": {"addr:street": "Camden High Street", "brand": "Urban Outfitters", "brand:wikidata": "Q3552193", "brand:wikipedia": "en:Urban Outfitters", "name": "Urban Outfitters", "shop": "clothes"}}, {"type": "node", "id": 931635767, "lat": 51.5394488, "lon": -0.1433097, "tags": {"addr:street": "Camden High Street", "name": "Camden Market Hall", "shop": "variety_store", "wikidata": "Q1028420"}}, {"type": "node", "id": 931635909, "lat": 51.5426885, "lon": -0.1424816}, {"type": "node", "id": 931636200, "lat": 51.5395164, "lon": -0.1433714, "tags": {"addr:street": "Camden High Street", "brand": "JD Sports", "brand:wikidata": "Q6108019", "brand:wikipedia": "en:JD Sports", "name": "JD Sports", "shop": "sports", "wheelchair": "yes"}}, {"type": "node", "id": 931636314, "lat": 51.5426844, "lon": -0.1422443}, {"type": "node", "id": 931637161, "lat": 51.5427766, "lon": -0.1445742, "tags": {"addr:housenumber": "23", "addr:street": "Castlehaven Road", "amenity": "cafe", "fax": "+44 20 7681 8642", "name": "Haven Youth Cafe", "phone": "+44 20 7681 8643", "website": "https://www.castlehaven.org.uk/", "wheelchair": "yes"}}, {"type": "node", "id": 931642103, "lat": 51.5396032, "lon": -0.1430126}, {"type": "node", "id": 931644239, "lat": 51.5396602, "lon": -0.1430594}, {"type": "node", "id": 931645658, "lat": 51.5395767, "lon": -0.1429917}, {"type": "node", "id": 931652698, "lat": 51.5418216, "lon": -0.1458949, "tags": {"addr:street": "Chalk Farm Road", "name": "Farcyde", "note": "Tapestries", "shop": "variety_store"}}, {"type": "node", "id": 931652731, "lat": 51.5424765, "lon": -0.146793, "tags": {"name": "Nok Art and Beauty", "shop": "beauty"}}, {"type": "node", "id": 931652777, "lat": 51.5429753, "lon": -0.148812}, {"type": "node", "id": 931652787, "lat": 51.54291, "lon": -0.1486683, "tags": {"amenity": "telephone", "booth": "KXPlus", "covered": "booth", "operator": "BT", "operator:wikidata": "Q593786"}}, {"type": "node", "id": 931652955, "lat": 51.5429273, "lon": -0.1477182}, {"type": "node", "id": 931652956, "lat": 51.542793, "lon": -0.1478082}, {"type": "node", "id": 931652957, "lat": 51.5427538, "lon": -0.1477351}, {"type": "node", "id": 931652958, "lat": 51.542903, "lon": -0.1476232}, {"type": "node", "id": 988668924, "lat": 51.5428601, "lon": -0.1423625}, {"type": "node", "id": 988668925, "lat": 51.5428282, "lon": -0.1419621}, {"type": "node", "id": 1150153830, "lat": 51.5420461, "lon": -0.1464405}, {"type": "node", "id": 1150153836, "lat": 51.5425138, "lon": -0.1471486, "tags": {"amenity": "bicycle_parking", "bicycle_parking": "stands", "capacity": "2", "covered": "no"}}, {"type": "node", "id": 1150153838, "lat": 51.5425881, "lon": -0.1473789, "tags": {"amenity": "bicycle_parking", "bicycle_parking": "stands", "capacity": "4", "covered": "no", "image": "https://storage13.openstreetcam.org/files/photo/2020/8/23/lth/2947186_d4627_5f42e266ba360.jpg", "survey:date": "2020-08-23"}}, {"type": "node", "id": 1202757775, "lat": 51.5385338, "lon": -0.1490643}, {"type": "node", "id": 1202757776, "lat": 51.5389294, "lon": -0.1493283}, {"type": "node", "id": 1202794936, "lat": 51.5412982, "lon": -0.1448983}, {"type": "node", "id": 1202794942, "lat": 51.5413388, "lon": -0.1445948}, {"type": "node", "id": 1202903659, "lat": 51.5406272, "lon": -0.1495102}, {"type": "node", "id": 1202903660, "lat": 51.5408727, "lon": -0.1486853}, {"type": "node", "id": 1202903716, "lat": 51.5406609, "lon": -0.1481617}, {"type": "node", "id": 1202903717, "lat": 51.5406715, "lon": -0.1480902}, {"type": "node", "id": 1202903729, "lat": 51.5408551, "lon": -0.1481602}, {"type": "node", "id": 1202903732, "lat": 51.540896, "lon": -0.1478826}, {"type": "node", "id": 1202903735, "lat": 51.5407743, "lon": -0.1478362}, {"type": "node", "id": 1202903738, "lat": 51.5408142, "lon": -0.1475659}, {"type": "node", "id": 1202903740, "lat": 51.5408479, "lon": -0.1475788}, {"type": "node", "id": 1202903742, "lat": 51.5408412, "lon": -0.1476236}, {"type": "node", "id": 1202903744, "lat": 51.5409766, "lon": -0.1476752}, {"type": "node", "id": 1202903747, "lat": 51.5409936, "lon": -0.1475599}, {"type": "node", "id": 1202903756, "lat": 51.5408664, "lon": -0.1474552}, {"type": "node", "id": 1202903760, "lat": 51.5408584, "lon": -0.1475094}, {"type": "node", "id": 1202903763, "lat": 51.5408251, "lon": -0.1474968}, {"type": "node", "id": 1202903767, "lat": 51.5408631, "lon": -0.1472394}, {"type": "node", "id": 1202903768, "lat": 51.5407406, "lon": -0.1471927}, {"type": "node", "id": 1202903778, "lat": 51.5406174, "lon": -0.1480278}, {"type": "node", "id": 1202903780, "lat": 51.5406017, "lon": -0.1480218}, {"type": "node", "id": 1202903783, "lat": 51.5405853, "lon": -0.1481329}, {"type": "node", "id": 1202903828, "lat": 51.5407983, "lon": -0.147007}, {"type": "node", "id": 1202903829, "lat": 51.5410256, "lon": -0.1471865}, {"type": "node", "id": 1202903845, "lat": 51.5410775, "lon": -0.1472282}, {"type": "node", "id": 1202904290, "lat": 51.5407648, "lon": -0.1471411}, {"type": "node", "id": 1202904295, "lat": 51.5413425, "lon": -0.1476829}, {"type": "node", "id": 1202904418, "lat": 51.5407479, "lon": -0.1485999}, {"type": "node", "id": 1202904423, "lat": 51.5405081, "lon": -0.1494196}, {"type": "node", "id": 1222347310, "lat": 51.5423346, "lon": -0.1470627, "tags": {"amenity": "bicycle_parking", "bicycle_parking": "stands", "capacity": "6"}}, {"type": "node", "id": 1232368494, "lat": 51.5390232, "lon": -0.142823}, {"type": "node", "id": 1232368501, "lat": 51.5386572, "lon": -0.1429885}, {"type": "node", "id": 1232368507, "lat": 51.5399399, "lon": -0.1414272}, {"type": "node", "id": 1232368515, "lat": 51.5382275, "lon": -0.1418716}, {"type": "node", "id": 1232368517, "lat": 51.5402276, "lon": -0.1417256}, {"type": "node", "id": 1232368519, "lat": 51.5387155, "lon": -0.1422231}, {"type": "node", "id": 1232368520, "lat": 51.5375074, "lon": -0.1420316}, {"type": "node", "id": 1232368523, "lat": 51.5380334, "lon": -0.1444433}, {"type": "node", "id": 1232368530, "lat": 51.5385071, "lon": -0.1437839}, {"type": "node", "id": 1232368549, "lat": 51.5390162, "lon": -0.1435928}, {"type": "node", "id": 1232368552, "lat": 51.5382787, "lon": -0.1439127}, {"type": "node", "id": 1232368556, "lat": 51.5378766, "lon": -0.1446513}, {"type": "node", "id": 1232368567, "lat": 51.5402347, "lon": -0.1417351}, {"type": "node", "id": 1232368577, "lat": 51.53866, "lon": -0.143358}, {"type": "node", "id": 1232368579, "lat": 51.537919, "lon": -0.1442153}, {"type": "node", "id": 1232368583, "lat": 51.5389613, "lon": -0.1422284}, {"type": "node", "id": 1232368588, "lat": 51.5384289, "lon": -0.1412325}, {"type": "node", "id": 1232368596, "lat": 51.538974, "lon": -0.1431065}, {"type": "node", "id": 1232368603, "lat": 51.5382236, "lon": -0.1439914}, {"type": "node", "id": 1232368610, "lat": 51.5379192, "lon": -0.1428376}, {"type": "node", "id": 1232368619, "lat": 51.5402948, "lon": -0.1416208}, {"type": "node", "id": 1232368621, "lat": 51.5389421, "lon": -0.1422641}, {"type": "node", "id": 1232368630, "lat": 51.5378556, "lon": -0.1440723}, {"type": "node", "id": 1232368638, "lat": 51.5384035, "lon": -0.1412108}, {"type": "node", "id": 1232368644, "lat": 51.5389641, "lon": -0.1431394}, {"type": "node", "id": 1232368653, "lat": 51.5381888, "lon": -0.1439475}, {"type": "node", "id": 1232368658, "lat": 51.5376085, "lon": -0.1417269}, {"type": "node", "id": 1232368662, "lat": 51.5378005, "lon": -0.1431484}, {"type": "node", "id": 1232368664, "lat": 51.538493, "lon": -0.143791}, {"type": "node", "id": 1232368671, "lat": 51.5390437, "lon": -0.1428205}, {"type": "node", "id": 1232368674, "lat": 51.5402895, "lon": -0.1416136}, {"type": "node", "id": 1232368687, "lat": 51.5383861, "lon": -0.1433972}, {"type": "node", "id": 1232368688, "lat": 51.5400524, "lon": -0.1412134}, {"type": "node", "id": 1232368694, "lat": 51.5382174, "lon": -0.1418268}, {"type": "node", "id": 1232368697, "lat": 51.538384, "lon": -0.1430346}, {"type": "node", "id": 1232368704, "lat": 51.5402022, "lon": -0.1417739}, {"type": "node", "id": 1234641495, "lat": 51.5428261, "lon": -0.1416866, "tags": {"amenity": "waste_basket"}}, {"type": "node", "id": 1234641995, "lat": 51.5404769, "lon": -0.142105, "tags": {"amenity": "recycling"}}, {"type": "node", "id": 1261962409, "lat": 51.5382747, "lon": -0.1492212}, {"type": "node", "id": 1261962415, "lat": 51.5404111, "lon": -0.1483757}, {"type": "node", "id": 1261962447, "lat": 51.5380725, "lon": -0.1494912}, {"type": "node", "id": 1261962462, "lat": 51.5403928, "lon": -0.1484091}, {"type": "node", "id": 1261962566, "lat": 51.5404022, "lon": -0.1484104}, {"type": "node", "id": 1261962580, "lat": 51.540413, "lon": -0.1483914}, {"type": "node", "id": 1261962617, "lat": 51.5404005, "lon": -0.1483653}, {"type": "node", "id": 1261962630, "lat": 51.5404098, "lon": -0.1484056}, {"type": "node", "id": 1261962820, "lat": 51.5380871, "lon": -0.1494719}, {"type": "node", "id": 1261962930, "lat": 51.5382634, "lon": -0.1492362}, {"type": "node", "id": 1262682189, "lat": 51.54187, "lon": -0.1445703}, {"type": "node", "id": 1262682192, "lat": 51.5417826, "lon": -0.1452231}, {"type": "node", "id": 1262682368, "lat": 51.5419408, "lon": -0.1438341}, {"type": "node", "id": 1262682384, "lat": 51.5417662, "lon": -0.1452526}, {"type": "node", "id": 1262682447, "lat": 51.5421505, "lon": -0.1425725}, {"type": "node", "id": 1342133405, "lat": 51.5428375, "lon": -0.1422802, "tags": {"amenity": "post_box", "brand": "Royal Mail", "brand:wikidata": "Q638098", "brand:wikipedia": "en:Royal Mail", "check_date": "2024-04-05", "collection_plate": "CP1D", "collection_times": "Mo-Fr 09:00; Sa 07:00", "colour": "red", "note": "RH aperture blocked up, RH collection plate missing", "operator": "Royal Mail", "operator:wikidata": "Q638098", "post_box:apertures": "1", "post_box:design": "type_c", "post_box:type": "pillar", "ref": "NW1 6242D", "royal_cypher": "EIIR", "royal_cypher:wikidata": "Q33102113", "wikimedia_commons": "Category:United Kingdom post box NW1 6242D"}}, {"type": "node", "id": 1427488523, "lat": 51.5375478, "lon": -0.1453767}, {"type": "node", "id": 1427488530, "lat": 51.5375233, "lon": -0.1454091}, {"type": "node", "id": 1427488532, "lat": 51.5375151, "lon": -0.14542}, {"type": "node", "id": 1427511167, "lat": 51.5379297, "lon": -0.1448723}, {"type": "node", "id": 1427511171, "lat": 51.5380562, "lon": -0.1447058}, {"type": "node", "id": 1427511176, "lat": 51.5378928, "lon": -0.1449211}, {"type": "node", "id": 1427511180, "lat": 51.5381144, "lon": -0.1446261}, {"type": "node", "id": 1427511183, "lat": 51.5381802, "lon": -0.1445414}, {"type": "node", "id": 1427511188, "lat": 51.5380265, "lon": -0.1447469}, {"type": "node", "id": 1427515110, "lat": 51.5383739, "lon": -0.1442856}, {"type": "node", "id": 1427518596, "lat": 51.5392589, "lon": -0.1425433, "tags": {"amenity": "recycling"}}, {"type": "node", "id": 1427518599, "lat": 51.5397195, "lon": -0.1424266}, {"type": "node", "id": 1427518604, "lat": 51.5387226, "lon": -0.143468, "tags": {"amenity": "waste_basket", "check_date": "2022-05-30"}}, {"type": "node", "id": 1427518618, "lat": 51.5389654, "lon": -0.1429956}, {"type": "node", "id": 1427518619, "lat": 51.5392677, "lon": -0.1425407, "tags": {"amenity": "waste_basket"}}, {"type": "node", "id": 1427518621, "lat": 51.5397816, "lon": -0.1424123}, {"type": "node", "id": 1427518623, "lat": 51.5390001, "lon": -0.1431237}, {"type": "node", "id": 1427518627, "lat": 51.539372, "lon": -0.1424944, "tags": {"amenity": "recycling"}}, {"type": "node", "id": 1427518629, "lat": 51.5392256, "lon": -0.1425753, "tags": {"amenity": "atm", "fee": "no", "wheelchair": "yes"}}, {"type": "node", "id": 1427518638, "lat": 51.5389382, "lon": -0.143079}, {"type": "node", "id": 1427518639, "lat": 51.5398232, "lon": -0.1424028}, {"type": "node", "id": 1427518640, "lat": 51.5394036, "lon": -0.1424555, "tags": {"amenity": "waste_basket"}}, {"type": "node", "id": 1427521093, "lat": 51.5401452, "lon": -0.1426664}, {"type": "node", "id": 1427521094, "lat": 51.5402592, "lon": -0.1426858}, {"type": "node", "id": 1427521095, "lat": 51.5401111, "lon": -0.1423722}, {"type": "node", "id": 1427521096, "lat": 51.5399313, "lon": -0.1423508, "tags": {"amenity": "shelter"}}, {"type": "node", "id": 1427521097, "lat": 51.5398691, "lon": -0.1423927}, {"type": "node", "id": 1427521101, "lat": 51.5402374, "lon": -0.1423502, "tags": {"amenity": "waste_basket"}}, {"type": "node", "id": 1427521102, "lat": 51.5399112, "lon": -0.1423656, "tags": {"amenity": "waste_basket"}}, {"type": "node", "id": 1427521692, "lat": 51.5405302, "lon": -0.1415317}, {"type": "node", "id": 1427521694, "lat": 51.5405234, "lon": -0.1416435}, {"type": "node", "id": 1427521695, "lat": 51.5405576, "lon": -0.141711}, {"type": "node", "id": 1427521697, "lat": 51.5408684, "lon": -0.1414332}, {"type": "node", "id": 1427521699, "lat": 51.5405017, "lon": -0.1416008}, {"type": "node", "id": 1427521700, "lat": 51.5406948, "lon": -0.1414634}, {"type": "node", "id": 1427521701, "lat": 51.5408388, "lon": -0.1416624}, {"type": "node", "id": 1427521703, "lat": 51.5405823, "lon": -0.1414824}, {"type": "node", "id": 1427521704, "lat": 51.5406549, "lon": -0.1414704}, {"type": "node", "id": 1427521712, "lat": 51.5405596, "lon": -0.1414899}, {"type": "node", "id": 1539535049, "lat": 51.5382757, "lon": -0.1409678}, {"type": "node", "id": 1568934904, "lat": 51.5392073, "lon": -0.142629}, {"type": "node", "id": 1568934906, "lat": 51.5392104, "lon": -0.1426682}, {"type": "node", "id": 1568934907, "lat": 51.5392159, "lon": -0.1425915}, {"type": "node", "id": 1568934908, "lat": 51.5391888, "lon": -0.1408166}, {"type": "node", "id": 1568934918, "lat": 51.5392541, "lon": -0.1406418}, {"type": "node", "id": 1568934931, "lat": 51.5392997, "lon": -0.1404604}, {"type": "node", "id": 1568934936, "lat": 51.539342, "lon": -0.1404073}, {"type": "node", "id": 1568934950, "lat": 51.5393887, "lon": -0.1405366}, {"type": "node", "id": 1568934959, "lat": 51.5394118, "lon": -0.1404675}, {"type": "node", "id": 1568934964, "lat": 51.5394364, "lon": -0.1422362}, {"type": "node", "id": 1568934969, "lat": 51.539433, "lon": -0.1422081}, {"type": "node", "id": 1568934971, "lat": 51.5394474, "lon": -0.1422555}, {"type": "node", "id": 1568934979, "lat": 51.539457, "lon": -0.1422821}, {"type": "node", "id": 1568935018, "lat": 51.539592, "lon": -0.1421179}, {"type": "node", "id": 1568935085, "lat": 51.5398621, "lon": -0.1432333}, {"type": "node", "id": 1568935086, "lat": 51.5398667, "lon": -0.1415518}, {"type": "node", "id": 1568935094, "lat": 51.5398966, "lon": -0.1430512}, {"type": "node", "id": 1568935095, "lat": 51.5399098, "lon": -0.1430576}, {"type": "node", "id": 1568935152, "lat": 51.5401041, "lon": -0.1411825}, {"type": "node", "id": 1568935165, "lat": 51.5401389, "lon": -0.1410508}, {"type": "node", "id": 1568935173, "lat": 51.5401521, "lon": -0.1410647}, {"type": "node", "id": 1568935232, "lat": 51.5404401, "lon": -0.1415366}, {"type": "node", "id": 1568935240, "lat": 51.5404864, "lon": -0.1414232}, {"type": "node", "id": 1568935246, "lat": 51.5405005, "lon": -0.1414381}, {"type": "node", "id": 1568935251, "lat": 51.5405309, "lon": -0.1400888}, {"type": "node", "id": 1568935252, "lat": 51.5405514, "lon": -0.1413133}, {"type": "node", "id": 1568935258, "lat": 51.5406665, "lon": -0.1414346}, {"type": "node", "id": 1568935259, "lat": 51.5407615, "lon": -0.1407912}, {"type": "node", "id": 1568935260, "lat": 51.540771, "lon": -0.1408013}, {"type": "node", "id": 1568935261, "lat": 51.5407869, "lon": -0.1407622}, {"type": "node", "id": 1568935262, "lat": 51.5408284, "lon": -0.1408597}, {"type": "node", "id": 1568935264, "lat": 51.5408311, "lon": -0.1408088}, {"type": "node", "id": 1568935266, "lat": 51.5409076, "lon": -0.1404458}, {"type": "node", "id": 1573841980, "lat": 51.5389532, "lon": -0.1446627}, {"type": "node", "id": 1573841986, "lat": 51.5390047, "lon": -0.1445158}, {"type": "node", "id": 1573841987, "lat": 51.5390302, "lon": -0.1448701}, {"type": "node", "id": 1575939776, "lat": 51.5395849, "lon": -0.1424576}, {"type": "node", "id": 1693743330, "lat": 51.5389563, "lon": -0.1450361}, {"type": "node", "id": 1693743337, "lat": 51.5385585, "lon": -0.144386}, {"type": "node", "id": 1693743346, "lat": 51.5388104, "lon": -0.1452393}, {"type": "node", "id": 1693743352, "lat": 51.5384192, "lon": -0.1445677}, {"type": "node", "id": 1693743361, "lat": 51.5388892, "lon": -0.1451588}, {"type": "node", "id": 1693743399, "lat": 51.5390992, "lon": -0.1449285}, {"type": "node", "id": 1693743414, "lat": 51.5387737, "lon": -0.1452071}, {"type": "node", "id": 1693743443, "lat": 51.5390498, "lon": -0.1450743}, {"type": "node", "id": 1693743447, "lat": 51.5388346, "lon": -0.145183}, {"type": "node", "id": 1693743451, "lat": 51.5389217, "lon": -0.1451749}, {"type": "node", "id": 1693743465, "lat": 51.5388271, "lon": -0.1443466}, {"type": "node", "id": 1693743487, "lat": 51.5383799, "lon": -0.1451488}, {"type": "node", "id": 1693743492, "lat": 51.5389159, "lon": -0.1447729}, {"type": "node", "id": 1693743505, "lat": 51.5383642, "lon": -0.1448704}, {"type": "node", "id": 1693743535, "lat": 51.5386431, "lon": -0.1444816}, {"type": "node", "id": 1693743543, "lat": 51.5387401, "lon": -0.1452749}, {"type": "node", "id": 1753757943, "lat": 51.5418281, "lon": -0.1462437}, {"type": "node", "id": 1753757950, "lat": 51.541897, "lon": -0.1461751}, {"type": "node", "id": 1753757956, "lat": 51.5419419, "lon": -0.1475657}, {"type": "node", "id": 1753757958, "lat": 51.541983, "lon": -0.1477384}, {"type": "node", "id": 1753757973, "lat": 51.5421341, "lon": -0.1466254}, {"type": "node", "id": 1753757982, "lat": 51.5422436, "lon": -0.1468876}, {"type": "node", "id": 1753757985, "lat": 51.5422342, "lon": -0.1485804}, {"type": "node", "id": 1753757991, "lat": 51.5423581, "lon": -0.1471883}, {"type": "node", "id": 1753757995, "lat": 51.542381, "lon": -0.1472612}, {"type": "node", "id": 1753757996, "lat": 51.5423838, "lon": -0.1472715}, {"type": "node", "id": 1753758002, "lat": 51.5424535, "lon": -0.1478584}, {"type": "node", "id": 1753758008, "lat": 51.5424737, "lon": -0.1479388}, {"type": "node", "id": 1753758011, "lat": 51.5424944, "lon": -0.1478304}, {"type": "node", "id": 1753758015, "lat": 51.5425048, "lon": -0.1483794}, {"type": "node", "id": 1753758016, "lat": 51.5425152, "lon": -0.1479139}, {"type": "node", "id": 1753758019, "lat": 51.5425259, "lon": -0.1477038}, {"type": "node", "id": 1753758021, "lat": 51.5425317, "lon": -0.1483664}, {"type": "node", "id": 1753758026, "lat": 51.542611, "lon": -0.1479686}, {"type": "node", "id": 1753758027, "lat": 51.5426233, "lon": -0.1483203}, {"type": "node", "id": 1753758029, "lat": 51.5426496, "lon": -0.1490787}, {"type": "node", "id": 1753758032, "lat": 51.5426845, "lon": -0.1482692}, {"type": "node", "id": 1753758033, "lat": 51.5427182, "lon": -0.1484483}, {"type": "node", "id": 1753758035, "lat": 51.5427452, "lon": -0.1491817}, {"type": "node", "id": 1753758037, "lat": 51.5427561, "lon": -0.1489763}, {"type": "node", "id": 1753758045, "lat": 51.5427982, "lon": -0.1488388}, {"type": "node", "id": 1753758047, "lat": 51.5428085, "lon": -0.1488824}, {"type": "node", "id": 1753758049, "lat": 51.5428299, "lon": -0.1489843}, {"type": "node", "id": 1782971930, "lat": 51.5401717, "lon": -0.1432905}, {"type": "node", "id": 1782971932, "lat": 51.5401012, "lon": -0.1434333}, {"type": "node", "id": 1782971933, "lat": 51.5401319, "lon": -0.142995}, {"type": "node", "id": 1782971934, "lat": 51.5401875, "lon": -0.1432442}, {"type": "node", "id": 1782971937, "lat": 51.5402509, "lon": -0.1431128}, {"type": "node", "id": 1782971938, "lat": 51.5402685, "lon": -0.1431168}, {"type": "node", "id": 1782971940, "lat": 51.5402847, "lon": -0.1429948}, {"type": "node", "id": 1782971941, "lat": 51.5401513, "lon": -0.1429452}, {"type": "node", "id": 1782971942, "lat": 51.5402785, "lon": -0.1430605}, {"type": "node", "id": 1782971945, "lat": 51.5401292, "lon": -0.1430287}, {"type": "node", "id": 1782971947, "lat": 51.5402138, "lon": -0.1428023}, {"type": "node", "id": 1782971950, "lat": 51.5402693, "lon": -0.1429089}, {"type": "node", "id": 1782971952, "lat": 51.540238, "lon": -0.1427896}, {"type": "node", "id": 1782971955, "lat": 51.5402793, "lon": -0.1428043}, {"type": "node", "id": 1782971958, "lat": 51.5402789, "lon": -0.1428188}, {"type": "node", "id": 1782971960, "lat": 51.5401216, "lon": -0.1434427}, {"type": "node", "id": 1782971962, "lat": 51.5401604, "lon": -0.1434467}, {"type": "node", "id": 1782971965, "lat": 51.540296, "lon": -0.1428271}, {"type": "node", "id": 1782971966, "lat": 51.5402255, "lon": -0.1427943}, {"type": "node", "id": 1782971969, "lat": 51.5401175, "lon": -0.1434454}, {"type": "node", "id": 1782971976, "lat": 51.5402993, "lon": -0.1427346}, {"type": "node", "id": 1782971977, "lat": 51.5401339, "lon": -0.1430661}, {"type": "node", "id": 1782971978, "lat": 51.5401609, "lon": -0.1434554}, {"type": "node", "id": 1782971981, "lat": 51.5402651, "lon": -0.1430397}, {"type": "node", "id": 1782971987, "lat": 51.5401546, "lon": -0.1434065}, {"type": "node", "id": 1782971991, "lat": 51.540175, "lon": -0.1428439}, {"type": "node", "id": 1782971999, "lat": 51.5401667, "lon": -0.1432208}, {"type": "node", "id": 1782972000, "lat": 51.5402601, "lon": -0.1427923}, {"type": "node", "id": 1782972001, "lat": 51.5401423, "lon": -0.1429599}, {"type": "node", "id": 1782972002, "lat": 51.5402621, "lon": -0.1427337}, {"type": "node", "id": 1782972006, "lat": 51.5401988, "lon": -0.1428064}, {"type": "node", "id": 1782972008, "lat": 51.5401838, "lon": -0.1428057}, {"type": "node", "id": 1782972010, "lat": 51.5401029, "lon": -0.1431705}, {"type": "node", "id": 1782972014, "lat": 51.540253, "lon": -0.1431698}, {"type": "node", "id": 1782972023, "lat": 51.5402589, "lon": -0.1430806}, {"type": "node", "id": 1782972024, "lat": 51.5401538, "lon": -0.1434172}, {"type": "node", "id": 1782972025, "lat": 51.5402801, "lon": -0.1427369}, {"type": "node", "id": 1782989427, "lat": 51.5384392, "lon": -0.1430831}, {"type": "node", "id": 1782989443, "lat": 51.5384967, "lon": -0.1431313}, {"type": "node", "id": 1782989448, "lat": 51.5384093, "lon": -0.1430565}, {"type": "node", "id": 1938772803, "lat": 51.5428421, "lon": -0.1444904}, {"type": "node", "id": 1938772804, "lat": 51.5428596, "lon": -0.1445185}, {"type": "node", "id": 1938772805, "lat": 51.5427424, "lon": -0.1445816}, {"type": "node", "id": 1938772807, "lat": 51.5428721, "lon": -0.1446969}, {"type": "node", "id": 1938772808, "lat": 51.5425635, "lon": -0.141728, "tags": {"amenity": "drinking_water", "note": "broken when I surveyed (2020-09-19)", "source": "survey"}}, {"type": "node", "id": 1938772814, "lat": 51.5428329, "lon": -0.1444864}, {"type": "node", "id": 1938772815, "lat": 51.5428121, "lon": -0.1444944}, {"type": "node", "id": 1938772816, "lat": 51.5428496, "lon": -0.1444984}, {"type": "node", "id": 1938772818, "lat": 51.5428229, "lon": -0.1444864}, {"type": "node", "id": 1938772819, "lat": 51.5426517, "lon": -0.1450812}, {"type": "node", "id": 1938772825, "lat": 51.5428366, "lon": -0.14475}, {"type": "node", "id": 1938772828, "lat": 51.5427255, "lon": -0.1449771}, {"type": "node", "id": 1989392692, "lat": 51.540499, "lon": -0.144238, "tags": {"addr:city": "London", "addr:country": "GB", "addr:housenumber": "261", "addr:postcode": "NW1 7BU", "addr:street": "Camden High Street", "amenity": "fast_food", "brand": "Pret A Manger", "brand:wikidata": "Q2109109", "brand:wikipedia": "en:Pret a Manger", "cuisine": "sandwich", "fhrs:id": "425135", "name": "Pret A Manger", "short_name": "Pret", "takeaway": "yes", "wheelchair": "yes"}}, {"type": "node", "id": 2060167031, "lat": 51.5411137, "lon": -0.1452538, "tags": {"addr:city": "London", "addr:housenumber": "289", "addr:postcode": "NW1 7BX", "addr:street": "Camden High Street", "amenity": "cafe", "brand": "Starbucks", "brand:wikidata": "Q37158", "brand:wikipedia": "en:Starbucks", "cuisine": "coffee_shop", "fhrs:id": "426526", "name": "Starbucks", "official_name": "Starbucks Coffee", "takeaway": "yes", "wheelchair": "yes"}}, {"type": "node", "id": 2141849208, "lat": 51.5390712, "lon": -0.141556, "tags": {"amenity": "bicycle_rental", "bicycle_rental": "docking_station", "brand": "Santander Cycles", "brand:wikidata": "Q807961", "capacity": "36", "local": "Camden Town", "name": "Greenland Road", "network": "tfl_cycle_hire", "note": "Docking stands are on both sides of the road", "official_name": "Greenland Road, Camden Town", "official_ref": "572", "operator": "Serco", "operator:wikidata": "Q499104"}}, {"type": "node", "id": 2141849209, "lat": 51.5388681, "lon": -0.1424803, "tags": {"amenity": "toilets", "check_date": "2023-09-19", "fee": "no", "female": "no", "fixme": "Are these still open?", "level": "-1", "male": "yes", "wheelchair": "no"}}, {"type": "node", "id": 2141849210, "lat": 51.5388945, "lon": -0.1428576, "tags": {"amenity": "toilets", "fee": "no", "female": "yes", "male": "no", "wheelchair": "no"}}, {"type": "node", "id": 2214914402, "lat": 51.5380273, "lon": -0.1442097}, {"type": "node", "id": 2214914403, "lat": 51.5380801, "lon": -0.1441108}, {"type": "node", "id": 2214915154, "lat": 51.5379817, "lon": -0.1436931}, {"type": "node", "id": 2214915155, "lat": 51.5380121, "lon": -0.1436023}, {"type": "node", "id": 2214915156, "lat": 51.5380701, "lon": -0.1438391}, {"type": "node", "id": 2214915158, "lat": 51.5381185, "lon": -0.1436942}, {"type": "node", "id": 2214915159, "lat": 51.538152, "lon": -0.143909}, {"type": "node", "id": 2214918255, "lat": 51.5378881, "lon": -0.1439807}, {"type": "node", "id": 2214918256, "lat": 51.5379025, "lon": -0.1440313}, {"type": "node", "id": 2214918257, "lat": 51.5379097, "lon": -0.1440755}, {"type": "node", "id": 2214918258, "lat": 51.5379121, "lon": -0.1440025}, {"type": "node", "id": 2214918259, "lat": 51.5379295, "lon": -0.1440926}, {"type": "node", "id": 2214918260, "lat": 51.5379593, "lon": -0.1440804}, {"type": "node", "id": 2214918261, "lat": 51.5379689, "lon": -0.1440516}, {"type": "node", "id": 2214918263, "lat": 51.5379932, "lon": -0.1440702}, {"type": "node", "id": 2214919307, "lat": 51.5381847, "lon": -0.1438242}, {"type": "node", "id": 2214919309, "lat": 51.5382041, "lon": -0.1439049}, {"type": "node", "id": 2214919312, "lat": 51.5382516, "lon": -0.1439496}, {"type": "node", "id": 2337300794, "lat": 51.5402176, "lon": -0.1435312}, {"type": "node", "id": 2337300796, "lat": 51.5403284, "lon": -0.1432135}, {"type": "node", "id": 2337300811, "lat": 51.5406778, "lon": -0.1439701}, {"type": "node", "id": 2337300812, "lat": 51.5407912, "lon": -0.1436554}, {"type": "node", "id": 2337300813, "lat": 51.5408367, "lon": -0.1442152}, {"type": "node", "id": 2337300832, "lat": 51.541117, "lon": -0.1442087}, {"type": "node", "id": 2337300835, "lat": 51.5412085, "lon": -0.1443582}, {"type": "node", "id": 2337300836, "lat": 51.5412317, "lon": -0.1442951}, {"type": "node", "id": 2337300837, "lat": 51.5412963, "lon": -0.1445281}, {"type": "node", "id": 2337300842, "lat": 51.5413059, "lon": -0.1445064}, {"type": "node", "id": 2337300844, "lat": 51.5413087, "lon": -0.1444073}, {"type": "node", "id": 2407371432, "lat": 51.5379892, "lon": -0.1443623}, {"type": "node", "id": 2407371435, "lat": 51.5379778, "lon": -0.1442661}, {"type": "node", "id": 2407371438, "lat": 51.53801, "lon": -0.1443332}, {"type": "node", "id": 2407371439, "lat": 51.5380273, "lon": -0.1433546}, {"type": "node", "id": 2407371442, "lat": 51.5380311, "lon": -0.1444402}, {"type": "node", "id": 2407371444, "lat": 51.5380431, "lon": -0.1440424}, {"type": "node", "id": 2407371446, "lat": 51.5380692, "lon": -0.1440045}, {"type": "node", "id": 2407371450, "lat": 51.5380919, "lon": -0.1440247}, {"type": "node", "id": 2407371451, "lat": 51.5380967, "lon": -0.1440151}, {"type": "node", "id": 2407371452, "lat": 51.5380505, "lon": -0.1441519}, {"type": "node", "id": 2407371454, "lat": 51.5381, "lon": -0.1443553}, {"type": "node", "id": 2407371455, "lat": 51.5381035, "lon": -0.1431419}, {"type": "node", "id": 2407371456, "lat": 51.5381133, "lon": -0.1431164}, {"type": "node", "id": 2407371457, "lat": 51.538122, "lon": -0.1439986}, {"type": "node", "id": 2407371458, "lat": 51.5381323, "lon": -0.1443129}, {"type": "node", "id": 2407371459, "lat": 51.5381407, "lon": -0.1440206}, {"type": "node", "id": 2407371466, "lat": 51.5381689, "lon": -0.1439805}, {"type": "node", "id": 2407371468, "lat": 51.5381624, "lon": -0.144273}, {"type": "node", "id": 2407371476, "lat": 51.538195, "lon": -0.1442298}, {"type": "node", "id": 2407371478, "lat": 51.5381997, "lon": -0.1438242}, {"type": "node", "id": 2407371479, "lat": 51.5382011, "lon": -0.1438286}, {"type": "node", "id": 2407371480, "lat": 51.5382078, "lon": -0.1438025}, {"type": "node", "id": 2407371483, "lat": 51.5382124, "lon": -0.1438007}, {"type": "node", "id": 2407371492, "lat": 51.5382498, "lon": -0.1438741}, {"type": "node", "id": 2407371493, "lat": 51.5382508, "lon": -0.1438362}, {"type": "node", "id": 2407371495, "lat": 51.5382531, "lon": -0.1438724}, {"type": "node", "id": 2407371496, "lat": 51.5382537, "lon": -0.1438269}, {"type": "node", "id": 2407371497, "lat": 51.5382559, "lon": -0.1441495}, {"type": "node", "id": 2407371498, "lat": 51.5382605, "lon": -0.1438904}, {"type": "node", "id": 2407371499, "lat": 51.538263, "lon": -0.1438829}, {"type": "node", "id": 2407371503, "lat": 51.538311, "lon": -0.1439397}, {"type": "node", "id": 2407371508, "lat": 51.5383526, "lon": -0.1440218}, {"type": "node", "id": 2407371510, "lat": 51.5383738, "lon": -0.1436723}, {"type": "node", "id": 2407371512, "lat": 51.5383851, "lon": -0.1436451}, {"type": "node", "id": 2407371514, "lat": 51.5383925, "lon": -0.1436516}, {"type": "node", "id": 2407371517, "lat": 51.5384073, "lon": -0.1436152}, {"type": "node", "id": 2407371521, "lat": 51.5385813, "lon": -0.1436045}, {"type": "node", "id": 2407371522, "lat": 51.5385572, "lon": -0.1432987}, {"type": "node", "id": 2407371524, "lat": 51.5385933, "lon": -0.1435223, "tags": {"amenity": "bicycle_parking", "bicycle_parking": "stands", "capacity": "8", "covered": "no"}}, {"type": "node", "id": 2407371526, "lat": 51.5386307, "lon": -0.1429704}, {"type": "node", "id": 2407371527, "lat": 51.53867, "lon": -0.1428861}, {"type": "node", "id": 2407371532, "lat": 51.5387049, "lon": -0.1429114}, {"type": "node", "id": 2407371533, "lat": 51.5387316, "lon": -0.1430278}, {"type": "node", "id": 2407371536, "lat": 51.5387396, "lon": -0.1426089}, {"type": "node", "id": 2407371537, "lat": 51.5387513, "lon": -0.142945}, {"type": "node", "id": 2407371540, "lat": 51.5388154, "lon": -0.142656}, {"type": "node", "id": 2407401852, "lat": 51.5384365, "lon": -0.1442029}, {"type": "node", "id": 2407401991, "lat": 51.538426, "lon": -0.142902}, {"type": "node", "id": 2407401996, "lat": 51.5384803, "lon": -0.142944}, {"type": "node", "id": 2407421221, "lat": 51.5372531, "lon": -0.14244}, {"type": "node", "id": 2407421222, "lat": 51.537254, "lon": -0.1422888}, {"type": "node", "id": 2407421227, "lat": 51.537294, "lon": -0.1423262}, {"type": "node", "id": 2407421228, "lat": 51.5372949, "lon": -0.1421711}, {"type": "node", "id": 2407421232, "lat": 51.5373942, "lon": -0.1425635}, {"type": "node", "id": 2407421243, "lat": 51.5375609, "lon": -0.1420767}, {"type": "node", "id": 2409376454, "lat": 51.5376817, "lon": -0.1444742}, {"type": "node", "id": 2409376706, "lat": 51.5374481, "lon": -0.1449887}, {"type": "node", "id": 2409376710, "lat": 51.5374757, "lon": -0.1449482}, {"type": "node", "id": 2409376714, "lat": 51.5374817, "lon": -0.1448747}, {"type": "node", "id": 2409376716, "lat": 51.5374992, "lon": -0.1447965}, {"type": "node", "id": 2409376719, "lat": 51.5375132, "lon": -0.145114}, {"type": "node", "id": 2409376721, "lat": 51.537521, "lon": -0.144736}, {"type": "node", "id": 2409376722, "lat": 51.537506, "lon": -0.1449105}, {"type": "node", "id": 2409376725, "lat": 51.5375221, "lon": -0.1448694}, {"type": "node", "id": 2409376728, "lat": 51.5375448, "lon": -0.1449057}, {"type": "node", "id": 2409376730, "lat": 51.537552, "lon": -0.1448915}, {"type": "node", "id": 2409376731, "lat": 51.5375543, "lon": -0.1442308}, {"type": "node", "id": 2409376732, "lat": 51.5375652, "lon": -0.1448563}, {"type": "node", "id": 2409376734, "lat": 51.5375766, "lon": -0.1450325}, {"type": "node", "id": 2409376736, "lat": 51.5376091, "lon": -0.1449908}, {"type": "node", "id": 2409376743, "lat": 51.5376804, "lon": -0.1448698}, {"type": "node", "id": 2409376744, "lat": 51.5376787, "lon": -0.1449013}, {"type": "node", "id": 2409376746, "lat": 51.537683, "lon": -0.1448847}, {"type": "node", "id": 2409376751, "lat": 51.5377375, "lon": -0.1439647}, {"type": "node", "id": 2409376755, "lat": 51.5377772, "lon": -0.1440008}, {"type": "node", "id": 2512247925, "lat": 51.5403218, "lon": -0.1485238}, {"type": "node", "id": 2590223210, "lat": 51.5395682, "lon": -0.1422258, "tags": {"check_date": "2023-09-19", "contact:website": "https://www.kinky.co.uk", "description": "Licensed sex shop", "name": "Blue Rose", "shop": "erotic", "wheelchair": "limited"}}, {"type": "node", "id": 2590224991, "lat": 51.5395396, "lon": -0.1424729}, {"type": "node", "id": 2840839739, "lat": 51.5415436, "lon": -0.1460834, "tags": {"addr:city": "London", "addr:housenumber": "Unit 34a", "addr:postcode": "NW1 8AF", "addr:street": "Camden Lock Place", "amenity": "restaurant", "brand": "Honest Burgers", "brand:wikidata": "Q110061173", "cuisine": "burger", "diet:gluten_free": "yes", "diet:vegan": "yes", "diet:vegetarian": "yes", "level": "0", "name": "Honest Burgers", "opening_hours": "Mo-Sa 11:30-23:00; Su 11:30-22:00", "phone": "+44 20 8617 3949", "website": "https://www.honestburgers.co.uk/", "wheelchair": "yes"}}, {"type": "node", "id": 2851309083, "lat": 51.537437, "lon": -0.1404437}, {"type": "node", "id": 2851309084, "lat": 51.5374603, "lon": -0.1403863}, {"type": "node", "id": 2851309087, "lat": 51.5375318, "lon": -0.1405347}, {"type": "node", "id": 2851309090, "lat": 51.5376254, "lon": -0.1406355}, {"type": "node", "id": 2866270796, "lat": 51.5382192, "lon": -0.1423309, "tags": {"addr:city": "London", "addr:housenumber": "167-169", "addr:postcode": "NW1 7JY", "addr:street": "Camden High Street", "level": "0", "old_name": "The Works", "shop": "vacant"}}, {"type": "node", "id": 2866270797, "lat": 51.5381377, "lon": -0.1422734, "tags": {"addr:housenumber": "159", "addr:street": "Camden High Street", "amenity": "restaurant", "name": "Chicken Shop", "opening_hours": "Su-Th 11:00-22:30; Fr,Sa 11:00-23:00"}}, {"type": "node", "id": 2866270798, "lat": 51.538174, "lon": -0.1423006, "tags": {"addr:city": "London", "addr:country": "GB", "addr:housenumber": "163,165", "addr:postcode": "NW1 7JY", "addr:street": "Camden High Street", "brand": "Tesco Express", "brand:wikidata": "Q98456772", "check_date": "2023-09-19", "contact:website": "https://www.tesco.com/store-locator/camden/159-165-camden-high-street", "currency:GBP": "yes", "fhrs:id": "1105496", "level": "0", "name": "Tesco Express", "opening_hours": "07:00-23:00", "payment:credit_cards": "yes", "payment:debit_cards": "yes", "payment:mastercard": "yes", "payment:visa": "yes", "shop": "convenience", "start_date": "2018", "wheelchair": "yes"}}, {"type": "node", "id": 2970870303, "lat": 51.5425053, "lon": -0.1457367, "tags": {"amenity": "bench"}}, {"type": "node", "id": 2970870305, "lat": 51.5419965, "lon": -0.1455545, "tags": {"amenity": "bicycle_rental", "bicycle_rental": "docking_station", "brand": "Santander Cycles", "brand:wikidata": "Q807961", "capacity": "29", "local": "Camden Town", "name": "Castlehaven Road", "network": "tfl_cycle_hire", "official_name": "Castlehaven Road, Camden Town", "official_ref": "457", "operator": "Serco", "operator:wikidata": "Q499104"}}, {"type": "node", "id": 2970870306, "lat": 51.542552, "lon": -0.1458253, "tags": {"amenity": "bench"}}, {"type": "node", "id": 2970870308, "lat": 51.5425037, "lon": -0.1454846, "tags": {"amenity": "bench"}}, {"type": "node", "id": 2970870309, "lat": 51.5423801, "lon": -0.1452647, "tags": {"amenity": "bench", "backrest": "yes"}}, {"type": "node", "id": 2970870310, "lat": 51.5410912, "lon": -0.1410314, "tags": {"amenity": "bench"}}, {"type": "node", "id": 3049227435, "lat": 51.5391766, "lon": -0.1446143, "tags": {"amenity": "bicycle_parking", "bicycle_parking": "stands", "capacity": "2", "covered": "no", "source:capacity": "survey"}}, {"type": "node", "id": 3049989166, "lat": 51.5410037, "lon": -0.1421963}, {"type": "node", "id": 3049989167, "lat": 51.5410304, "lon": -0.142468}, {"type": "node", "id": 3049989170, "lat": 51.5410076, "lon": -0.1424702}, {"type": "node", "id": 3050000754, "lat": 51.5412527, "lon": -0.1432102, "tags": {"amenity": "studio", "name": "Nickelodeon", "operator": "Viacom International Media Networks", "studio": "television"}}, {"type": "node", "id": 3050015452, "lat": 51.5407305, "lon": -0.1440203}, {"type": "node", "id": 3050015453, "lat": 51.5408441, "lon": -0.1437045}, {"type": "node", "id": 3050541352, "lat": 51.5386729, "lon": -0.1441533, "tags": {"amenity": "bicycle_parking", "bicycle_parking": "bollard", "capacity": "2", "covered": "no"}}, {"type": "node", "id": 3138186730, "lat": 51.540905, "lon": -0.14389, "tags": {"amenity": "restaurant", "check_date": "2024-04-26", "cuisine": "fish_and_chips", "name": "Poppies of Camden", "outdoor_seating": "yes", "phone": "+44 20 7267 0440", "takeaway": "yes", "wheelchair": "yes"}}, {"type": "node", "id": 3454339226, "lat": 51.5385344, "lon": -0.1425843, "tags": {"addr:city": "London", "addr:housenumber": "179", "addr:postcode": "NW1 7JY", "addr:street": "Camden High Street", "brand": "Pure", "brand:wikidata": "Q30599327", "check_date": "2023-09-19", "cuisine": "breakfast;salad", "level": "0", "name": "laserclinics", "payment:credit_cards": "yes", "payment:debit_cards": "yes", "payment:mastercard": "yes", "payment:visa": "yes", "shop": "beauty", "takeaway": "yes", "website": "https://www.pure.co.uk/shops/camden/"}}, {"type": "node", "id": 3454339227, "lat": 51.5386267, "lon": -0.1426464, "tags": {"addr:housenumber": "183", "addr:street": "Camden High Street", "check_date": "2024-09-07", "disused:shop": "mobile_phone", "level": "0", "old_name": "O2", "shop": "vacant"}}, {"type": "node", "id": 3513727640, "lat": 51.5430378, "lon": -0.1443642}, {"type": "node", "id": 3513727641, "lat": 51.5431851, "lon": -0.1452591}, {"type": "node", "id": 3513727642, "lat": 51.5432299, "lon": -0.1451622}, {"type": "node", "id": 3513727643, "lat": 51.5436551, "lon": -0.1455364}, {"type": "node", "id": 3513727644, "lat": 51.5437368, "lon": -0.1442688}, {"type": "node", "id": 3513727645, "lat": 51.5438285, "lon": -0.1454177}, {"type": "node", "id": 3608653828, "lat": 51.5423781, "lon": -0.1471949, "tags": {"addr:city": "London", "addr:housename": "Camden Market", "addr:housenumber": "56-56", "addr:postcode": "NW1 8AF", "addr:street": "Camden Lock Place", "amenity": "marketplace", "email": "info@camdenmarket.com", "name": "Camden Market", "name:zh": "\u5361\u59c6\u767b\u5e02\u96c6", "opening_hours": "10:00-18:00", "phone": "+44 20 3763 9999", "tourism": "attraction", "website": "https://www.camdenmarket.com/", "wikidata": "Q1028420", "wikipedia": "en:Camden Market"}}, {"type": "node", "id": 3658106696, "lat": 51.5380417, "lon": -0.1446426, "tags": {"amenity": "bicycle_rental", "bicycle_rental": "docking_station", "brand": "Santander Cycles", "brand:wikidata": "Q807961", "capacity": "33", "local": "Camden Town", "name": "Parkway", "network": "tfl_cycle_hire", "official_name": "Parkway, Camden Town", "official_ref": "456", "operator": "Serco", "operator:wikidata": "Q499104"}}, {"type": "node", "id": 3705425015, "lat": 51.5398213, "lon": -0.1433061, "tags": {"amenity": "waste_basket"}}, {"type": "node", "id": 3705425016, "lat": 51.539805, "lon": -0.1434388, "tags": {"amenity": "telephone", "booth": "WC", "check_date": "2025-04-10", "colour": "black", "covered": "booth", "mapillary": "218981759723108", "note": "not BT", "wheelchair": "yes"}}, {"type": "node", "id": 3705425017, "lat": 51.539745, "lon": -0.1431292}, {"type": "node", "id": 3705425363, "lat": 51.5398759, "lon": -0.1433503, "tags": {"amenity": "telephone", "booth": "InLink", "note": "Combined advertising screen, Wifi point, phone", "operator": "BT"}}, {"type": "node", "id": 3706232911, "lat": 51.5396383, "lon": -0.1431596, "tags": {"amenity": "waste_basket"}}, {"type": "node", "id": 3706232912, "lat": 51.5389182, "lon": -0.1428431, "tags": {"amenity": "bicycle_parking", "bicycle_parking": "stands", "capacity": "8", "covered": "no"}}, {"type": "node", "id": 3710942798, "lat": 51.5421618, "lon": -0.147715, "tags": {"amenity": "toilets", "fee": "yes", "level": "-1", "operator": "Camden Stables Market", "wheelchair": "yes"}}, {"type": "node", "id": 3738698955, "lat": 51.5415304, "lon": -0.1467846, "tags": {"addr:city": "London", "addr:housename": "Stables Market", "addr:postcode": "NW1 8AB", "addr:street": "Chalk Farm Road", "amenity": "restaurant", "cuisine": "african;steak_house", "name": "Shaka Zulu", "opening_hours": "Su-Th 12:00-15:00,17:00-24:00; Fr,Sa 12:00-15:00,17:00-02:00", "takeaway": "no"}}, {"type": "node", "id": 3771228920, "lat": 51.5423098, "lon": -0.1464557, "tags": {"amenity": "bicycle_parking", "capacity": "2"}}, {"type": "node", "id": 3771239683, "lat": 51.5423252, "lon": -0.1465399}, {"type": "node", "id": 3771239684, "lat": 51.5423548, "lon": -0.146607}, {"type": "node", "id": 3771239685, "lat": 51.5424066, "lon": -0.1464367}, {"type": "node", "id": 3771239686, "lat": 51.5424054, "lon": -0.1467355}, {"type": "node", "id": 3771239687, "lat": 51.5422219, "lon": -0.1463414}, {"type": "node", "id": 3771239688, "lat": 51.542445, "lon": -0.1465075}, {"type": "node", "id": 3771239689, "lat": 51.5425062, "lon": -0.1466217}, {"type": "node", "id": 3771239690, "lat": 51.5426326, "lon": -0.1473154}, {"type": "node", "id": 3771239691, "lat": 51.5427309, "lon": -0.1476666}, {"type": "node", "id": 3771239693, "lat": 51.5428808, "lon": -0.147546}, {"type": "node", "id": 3771257850, "lat": 51.5428215, "lon": -0.1480729}, {"type": "node", "id": 3771257851, "lat": 51.5428396, "lon": -0.1481581}, {"type": "node", "id": 3771257852, "lat": 51.5428562, "lon": -0.1482362}, {"type": "node", "id": 3771257855, "lat": 51.5429142, "lon": -0.1484959}, {"type": "node", "id": 3771257856, "lat": 51.5429296, "lon": -0.1485759}, {"type": "node", "id": 3771257857, "lat": 51.542945, "lon": -0.1486551}, {"type": "node", "id": 3771257858, "lat": 51.5429516, "lon": -0.1479044}, {"type": "node", "id": 3771257859, "lat": 51.5429357, "lon": -0.1487868, "tags": {"amenity": "bicycle_parking", "bicycle_parking": "stands", "capacity": "6", "covered": "no"}}, {"type": "node", "id": 3771257860, "lat": 51.5429694, "lon": -0.1479911}, {"type": "node", "id": 3771257861, "lat": 51.5429871, "lon": -0.1480767}, {"type": "node", "id": 3771257863, "lat": 51.5429559, "lon": -0.1481814}, {"type": "node", "id": 3771257864, "lat": 51.5430167, "lon": -0.1482407}, {"type": "node", "id": 3771257865, "lat": 51.5430568, "lon": -0.1484245}, {"type": "node", "id": 3771257866, "lat": 51.5430723, "lon": -0.1485045}, {"type": "node", "id": 3771257867, "lat": 51.5430876, "lon": -0.1485837}, {"type": "node", "id": 3771257868, "lat": 51.543118, "lon": -0.1487406}, {"type": "node", "id": 3793003571, "lat": 51.5422633, "lon": -0.1477907, "tags": {"addr:city": "London", "addr:housename": "431 Stables Market", "addr:postcode": "NW1 8AH", "addr:street": "Chalk Farm Road", "layer": "-1", "level": "-1", "name": "Mr Snappys Custom Cap store", "opening_hours": "Mo-Fr 12:00-18:00; Sa-Su 11:00-19:00", "operator": "Mr Simon Parchment", "shop": "customizing_cap_shop"}}, {"type": "node", "id": 3818071258, "lat": 51.5377487, "lon": -0.1419403, "tags": {"addr:city": "London", "addr:housenumber": "141", "addr:postcode": "NW1 7JR", "addr:street": "Camden High Street", "name": "Snappy Snaps", "shop": "photo", "website": "https://www.snappysnaps.co.uk/camden/more-times"}}, {"type": "node", "id": 3818071259, "lat": 51.537618, "lon": -0.1418373, "tags": {"addr:housenumber": "135", "addr:street": "Camden High Street", "brand": "Three", "brand:wikidata": "Q407009", "brand:wikipedia": "en:3 (company)", "contact:website": "https://locator.three.co.uk/london-&-ni/camden/135-camden-high-street", "name": "Three.", "shop": "mobile_phone", "website": "https://locator.three.co.uk/london/camden/135-camden-high-street"}}, {"type": "node", "id": 3818071262, "lat": 51.53828, "lon": -0.1439084}, {"type": "node", "id": 3818071263, "lat": 51.5382945, "lon": -0.1438631}, {"type": "node", "id": 3878763053, "lat": 51.5383899, "lon": -0.1419887}, {"type": "node", "id": 3878763054, "lat": 51.5384566, "lon": -0.1420349}, {"type": "node", "id": 3878763055, "lat": 51.5383242, "lon": -0.1419407}, {"type": "node", "id": 3887375539, "lat": 51.5383972, "lon": -0.1408859}, {"type": "node", "id": 4145328679, "lat": 51.5417938, "lon": -0.146116, "tags": {"addr:city": "London", "addr:postcode": "NW1 8AH", "amenity": "cafe", "cuisine": "shakshuka;coffee", "diet:vegan": "yes", "diet:vegetarian": "only", "happycow:id": "75626", "name": "Cafe Loren", "name:ar": "\u0645\u0642\u0647\u0649 cafe loren camden", "name:en": "Cafe Loren", "opening_hours": "08:00-20:30", "website": "http://cafeloren.co.uk/"}}, {"type": "node", "id": 4145328680, "lat": 51.5423064, "lon": -0.1482268, "tags": {"addr:city": "London", "addr:housename": "The Stables Market", "addr:postcode": "NW1 8AH", "addr:street": "Chalk Farm Road", "addr:suburb": "Camden", "addr:unit": "449-452", "amenity": "cafe", "fhrs:id": "1208692", "fhrs:local_authority_id": "197076", "level": "-1", "name": "Basement Tea Rooms"}}, {"type": "node", "id": 4167366489, "lat": 51.5374199, "lon": -0.1411628}, {"type": "node", "id": 4174259311, "lat": 51.5437782, "lon": -0.1443359}, {"type": "node", "id": 4220097955, "lat": 51.540559, "lon": -0.1488642}, {"type": "node", "id": 4321165201, "lat": 51.5411801, "lon": -0.1461637, "tags": {"addr:city": "London", "addr:housenumber": "39", "addr:postcode": "NW1 8AF", "addr:street": "Middle Yard, Camden Lock Place", "amenity": "restaurant", "cuisine": "spanish", "level": "0", "name": "Hola Paella", "opening_hours": "Mo-Su 09:00-18:00", "takeaway": "yes", "website": "http://hola-paella.com/"}}, {"type": "node", "id": 4321193905, "lat": 51.541291, "lon": -0.1465727, "tags": {"addr:city": "London", "addr:housenumber": "65", "addr:postcode": "NW1 8AF", "addr:street": "Camden Lock Place", "level": "0", "name": "Village Games", "opening_hours": "We-Su 10:00-17:30", "phone": "+44 20 7485 0653", "shop": "games", "website": "http://villagegames.com/"}}, {"type": "node", "id": 4321198785, "lat": 51.5413862, "lon": -0.1463589, "tags": {"addr:city": "London", "addr:housenumber": "52", "addr:postcode": "NW1 8AF", "addr:street": "Camden Lock Place", "level": "0", "name": "Blaze On", "opening_hours": "Mo-Fr 10:30-18:00, Sa-Su 10:00-18:30", "phone": "+44 20 8960 2023", "shop": "lighting", "website": "https://www.blaze-on.com/"}}, {"type": "node", "id": 4321202583, "lat": 51.5413724, "lon": -0.1460252, "tags": {"addr:city": "London", "addr:housenumber": "35", "addr:postcode": "NW1 8AL", "addr:street": "Middle Yard, Camden Lock Place", "level": "0", "name": "Celtic Dawn", "opening_hours": "Mo-Fr 10:30-18:00, Sa-Su 10:00-18:00", "shop": "jewelry"}}, {"type": "node", "id": 4321207426, "lat": 51.541403, "lon": -0.1463108, "tags": {"addr:city": "London", "addr:housenumber": "49\u201350", "addr:postcode": "NW1 8AF", "addr:street": "Camden Lock Place", "level": "0", "name": "Chin Chin Labs", "opening_hours": "Mo-Su 12:00-19:00", "shop": "ice_cream", "website": "http://www.chinchinlabs.com/"}}, {"type": "node", "id": 4321209669, "lat": 51.5413021, "lon": -0.1462362, "tags": {"addr:city": "London", "addr:housenumber": "47", "addr:postcode": "NW1 8AF", "addr:street": "Camden Lock Place", "level": "1", "name": "Tile Cat", "shop": "clothes"}}, {"type": "node", "id": 4321212600, "lat": 51.5412459, "lon": -0.1462302, "tags": {"addr:city": "London", "addr:housenumber": "42", "addr:postcode": "NW1 8AF", "addr:street": "Camden Lock Place", "level": "1", "name": "The Piano Shop", "shop": "musical_instrument"}}, {"type": "node", "id": 4321220287, "lat": 51.5413488, "lon": -0.1462723, "tags": {"addr:city": "London", "addr:housenumber": "48", "addr:postcode": "NW1 8AF", "addr:street": "Camden Lock Place", "level": "1", "name": "Penny Burdett", "opening_hours": "Mo-Fr 11:30-17:30, Sa-Su 10:30-18:00", "shop": "clothes", "website": "https://www.pennyburdett.co.uk/"}}, {"type": "node", "id": 4321236577, "lat": 51.5412848, "lon": -0.1466174, "tags": {"addr:city": "London", "addr:housenumber": "66", "addr:postcode": "NW1 8AF", "addr:street": "Camden Lock Place", "level": "0", "name": "Butterfly Tarot", "shop": "psychic", "website": "https://camdentarot.com/"}}, {"type": "node", "id": 4321240995, "lat": 51.5413015, "lon": -0.1466362, "tags": {"addr:city": "London", "addr:housenumber": "59b", "addr:postcode": "NW1 8AH", "addr:street": "Camden Lock Place", "level": "0", "name": "Josiah Amari", "opening_hours": "Mo-Th 09:30-17:30", "shop": "clothes"}}, {"type": "node", "id": 4321252186, "lat": 51.5411672, "lon": -0.1466697, "tags": {"addr:city": "London", "addr:housenumber": "70", "addr:postcode": "NW1 8AF", "addr:street": "Camden Lock Place", "level": "0", "name": "Black Gull Books", "opening_hours": "Mo-Su 10:00-18:00", "shop": "books"}}, {"type": "node", "id": 4321255079, "lat": 51.541143, "lon": -0.1466478, "tags": {"addr:city": "London", "addr:housenumber": "72", "addr:postcode": "NW1 8AF", "addr:street": "Camden Lock Place", "level": "0", "name": "Custom Leather", "opening_hours": "We-Fr 12:00-17:30, Sa,Su 11:00-18:00", "phone": "+44 20 7482 1407", "shop": "leather", "website": "https://www.crispinbendingleather.co.uk/"}}, {"type": "node", "id": 4321358785, "lat": 51.5413516, "lon": -0.1462821, "tags": {"addr:city": "London", "addr:housenumber": "45", "addr:postcode": "NW1 8AF", "addr:street": "Middle Yard, Camden Lock Place", "amenity": "cafe", "level": "0", "name": "Lantana Caf\u00e9", "opening_hours": "Mo-Sa 08:30-17:30", "website": "https://lantanacafe.co.uk/lantana-cafe-camden/"}}, {"type": "node", "id": 4321402576, "lat": 51.5411284, "lon": -0.1466318, "tags": {"addr:city": "London", "addr:housenumber": "73", "addr:postcode": "NW1 8AF", "addr:street": "Camden Lock Place", "description": "Afghan, Persian, and Turkmen carpets and kelims.", "level": "0", "name": "A.B.R. Carpets", "phone": "+44 20 7482 4355", "shop": "carpet"}}, {"type": "node", "id": 4321442773, "lat": 51.5411089, "lon": -0.1466229, "tags": {"addr:city": "London", "addr:housenumber": "74", "addr:postcode": "NW1 8AF", "addr:street": "Camden Lock Place", "level": "0", "name": "R.T. Gift Shop", "opening_hours": "Mo-Fr 11:00-17:00; Sa,Su 10:00-18:00", "phone": "+44 20 7253 8995", "shop": "gift", "website": "http://rtgiftshop.com"}}, {"type": "node", "id": 4321451979, "lat": 51.5409966, "lon": -0.1465686, "tags": {"addr:city": "London", "addr:housenumber": "75\u201389", "addr:postcode": "NW1 8AF", "addr:street": "Camden Lock Place", "amenity": "restaurant", "cuisine": "mexican", "level": "0", "name": "Caf\u00e9 Chula", "website": "https://www.cafechula.co.uk/"}}, {"type": "node", "id": 4352654959, "lat": 51.5376408, "lon": -0.1452539}, {"type": "node", "id": 4432857247, "lat": 51.5412496, "lon": -0.1461826, "tags": {"addr:city": "London", "addr:housenumber": "43", "addr:postcode": "NW1 8AF", "addr:street": "Middle Yard, Camden Lock Place", "level": "0", "name": "Massive International", "opening_hours": "Mo-Su 11:00-19:00 open", "phone": "+44 20 7267 9490", "shop": "music", "website": "https://massive-international.com/"}}, {"type": "node", "id": 4432910734, "lat": 51.5413968, "lon": -0.1460521, "tags": {"addr:city": "London", "addr:housenumber": "35a", "addr:postcode": "NW1 8AF", "addr:street": "Middle Yard, Camden Lock Place", "level": "0", "name": "Camden Lock Vinyl", "shop": "music", "wheelchair": "yes"}}, {"type": "node", "id": 4432949304, "lat": 51.5413131, "lon": -0.1465252, "tags": {"addr:city": "London", "addr:housenumber": "53", "addr:postcode": "NW1 8AF", "addr:street": "Camden Lock Place", "amenity": "bar", "contact:facebook": "https://www.facebook.com/halfhitchgin/", "contact:instagram": "https://www.instagram.com/halfhitchgin/", "contact:twitter": "https://twitter.com/halfhitchgin", "craft": "distillery", "distillery": "gin", "email": "enquiries@halfhitch.london", "level": "0", "min_age": "18", "name": "Half Hitch", "opening_hours": "Mo-Su 11:00-17:00", "phone": "+44 20 3096 3027", "website": "https://www.halfhitch.london/"}}, {"type": "node", "id": 4432964990, "lat": 51.5412427, "lon": -0.146723, "tags": {"addr:city": "London", "addr:housenumber": "68", "addr:postcode": "NW1 8AF", "addr:street": "Camden Lock Place", "level": "0", "name": "Roger Stone", "shop": "jewelry"}}, {"type": "node", "id": 4432966467, "lat": 51.5412155, "lon": -0.1466992, "tags": {"addr:city": "London", "addr:housenumber": "69", "addr:postcode": "NW1 8AF", "addr:street": "Camden Lock Place", "level": "0", "name": "Carnaby", "shop": "clothes"}}, {"type": "node", "id": 4438721957, "lat": 51.5412322, "lon": -0.1461716, "tags": {"addr:city": "London", "addr:country": "GB", "addr:housenumber": "40", "addr:parentstreet": "Camden Lock Place", "addr:postcode": "NW1 8AF", "addr:street": "Middle Yard", "art": "poster", "name": "Time Art Gallery", "shop": "art", "website": "https://www.timeart.co.uk/"}}, {"type": "node", "id": 4438750935, "lat": 51.5411821, "lon": -0.1462104, "tags": {"addr:city": "London", "addr:housenumber": "41", "addr:postcode": "NW1 8AF", "addr:street": "West Yard, Camden Lock Place", "level": "0", "name": "UP The Video Junction", "shop": "video"}}, {"type": "node", "id": 4440565047, "lat": 51.5413913, "lon": -0.1459057, "tags": {"addr:city": "London", "addr:housenumber": "Unit L7", "addr:postcode": "NW1 8AL", "addr:street": "Camden Lock Place", "level": "0", "name": "In-fusion Tea", "shop": "tea", "website": "http://in-fusiontea.co.uk/", "wheelchair": "yes"}}, {"type": "node", "id": 4440565048, "lat": 51.5413824, "lon": -0.1459327, "tags": {"addr:city": "London", "addr:housenumber": "Unit L6", "addr:postcode": "NW1 8AL", "addr:street": "Camden Lock Place", "level": "0", "name": "Cuban Cigars", "shop": "tobacco", "wheelchair": "yes"}}, {"type": "node", "id": 4440565049, "lat": 51.5413739, "lon": -0.1459618, "tags": {"addr:city": "London", "addr:housenumber": "Unit L4", "addr:postcode": "NW1 8AL", "addr:street": "Camden Lock Place", "name": "Ismad London", "shop": "bag"}}, {"type": "node", "id": 4440565050, "lat": 51.5414122, "lon": -0.1459968, "tags": {"addr:city": "London", "addr:housenumber": "Unit L3", "addr:postcode": "NW1 8AL", "addr:street": "Camden Lock Place", "level": "0", "name": "Books Iconica", "shop": "books", "website": "https://booksiconica.co.uk/", "wheelchair": "yes"}}, {"type": "node", "id": 4440565051, "lat": 51.5414478, "lon": -0.1460409, "tags": {"addr:city": "London", "addr:housenumber": "Unit L2", "addr:postcode": "NW1 8AL", "addr:street": "Camden Lock Place", "level": "0", "name": "House of Guadalupe", "shop": "craft", "website": "http://www.houseofguadalupe.co.uk/"}}, {"type": "node", "id": 4440565052, "lat": 51.5414732, "lon": -0.1460632, "tags": {"addr:city": "London", "addr:housenumber": "Unit L1", "addr:postcode": "NW1 8AL", "addr:street": "Camden Lock Place", "diet:gluten_free": "only", "diet:vegan": "only", "level": "0", "name": "Cookies & Scream", "shop": "bakery", "website": "http://cookiesandscream.com/", "wheelchair": "yes"}}, {"type": "node", "id": 4440565053, "lat": 51.5414967, "lon": -0.1461156, "tags": {"addr:city": "London", "addr:housenumber": "34c", "addr:postcode": "NW1 8AL", "addr:street": "Camden Lock Place", "amenity": "restaurant", "cuisine": "vietnamese", "level": "0", "name": "Kim's Vietnamese Hut", "takeaway": "only", "wheelchair": "yes"}}, {"type": "node", "id": 4440565054, "lat": 51.5415231, "lon": -0.1461418, "tags": {"addr:city": "London", "addr:housenumber": "34b", "addr:postcode": "NW1 8AL", "addr:street": "Camden Lock Place", "amenity": "restaurant", "name": "The Good Yard", "takeaway": "only"}}, {"type": "node", "id": 4440565055, "lat": 51.5414042, "lon": -0.1458449, "tags": {"addr:city": "London", "addr:housenumber": "2", "addr:postcode": "NW1 8AL", "addr:street": "Camden Lock Place", "ele": "0", "name": "Japan Craft", "shop": "craft", "website": "https://japancraft.co.uk/"}}, {"type": "node", "id": 4440565056, "lat": 51.5414174, "lon": -0.1458122, "tags": {"addr:city": "London", "addr:housenumber": "1d", "addr:postcode": "NW1 8AL", "addr:street": "Camden Lock Place", "level": "0", "name": "Tribu", "shop": "jewelry", "website": "https://tribu.co.uk/", "wheelchair": "yes"}}, {"type": "node", "id": 4440565057, "lat": 51.5414284, "lon": -0.1457821, "tags": {"addr:city": "London", "addr:housenumber": "1c", "addr:postcode": "NW1 8AL", "addr:street": "Camden Lock Place", "level": "0", "name": "Gallery Frames", "shop": "frame"}}, {"type": "node", "id": 4440565058, "lat": 51.5414405, "lon": -0.1457485, "tags": {"addr:city": "London", "addr:housenumber": "1b", "addr:postcode": "NW1 8AL", "addr:street": "Camden Lock Place", "contact:facebook": "https://www.facebook.com/quena.co.uk", "contact:website": "http://quena.co.uk/", "level": "0", "name": "Quena", "shop": "craft"}}, {"type": "node", "id": 4440565059, "lat": 51.5414521, "lon": -0.1457158, "tags": {"addr:city": "London", "addr:housenumber": "1a", "addr:postcode": "NW1 8AL", "addr:street": "Camden Lock Place", "level": "0", "name": "Camden Town Poster Company", "shop": "art", "wheelchair": "yes"}}, {"type": "node", "id": 4440565060, "lat": 51.5414229, "lon": -0.1454494, "tags": {"addr:city": "London", "addr:housenumber": "218", "addr:postcode": "NW1 8AB", "addr:street": "Chalk Farm Road", "level": "0", "name": "SUPERGA", "shop": "shoes", "website": "https://www.superga.co.uk/stores/camden-london", "wheelchair": "yes"}}, {"type": "node", "id": 4440565061, "lat": 51.5414592, "lon": -0.1454999, "tags": {"addr:city": "London", "addr:housenumber": "217", "addr:postcode": "NW1 8AB", "addr:street": "Chalk Farm Road", "brand": "Happy Socks", "brand:wikidata": "Q10517909", "clothes": "socks", "level": "0", "name": "Happy Socks", "shop": "clothes", "website": "https://www.happysocks.com/eu/about-us/all-stores", "wheelchair": "yes"}}, {"type": "node", "id": 4440565062, "lat": 51.541495, "lon": -0.1455538, "tags": {"addr:city": "London", "addr:housenumber": "209-210", "addr:postcode": "NW1 8AB", "addr:street": "Chalk Farm Road", "amenity": "cafe", "brand": "Caf\u00e9 de Nata", "brand:wikidata": "Q112672158", "cuisine": "portuguese", "diet:vegan": "yes", "diet:vegetarian": "yes", "fhrs:id": "1351250", "level": "0", "name": "Caf\u00e9 de Nata", "shop": "pastry", "source:addr": "FHRS Open Data"}}, {"type": "node", "id": 4440565063, "lat": 51.5415407, "lon": -0.1456246, "tags": {"addr:city": "London", "addr:housenumber": "208", "addr:postcode": "NW1 8AB", "addr:street": "Chalk Farm Road", "contact:facebook": "https://www.facebook.com/thisiswheretoshop", "level": "0", "name": "Chain Reaction", "shop": "gift", "wheelchair": "yes"}}, {"type": "node", "id": 4440565064, "lat": 51.5415671, "lon": -0.1456662, "tags": {"addr:city": "London", "addr:housenumber": "207", "addr:postcode": "NW1 8AB", "addr:street": "Chalk Farm Road", "contact:facebook": "https://www.facebook.com/gekkolondon", "level": "0", "name": "Gekko", "shop": "clothes", "wheelchair": "yes"}}, {"type": "node", "id": 4440565066, "lat": 51.5415434, "lon": -0.1458095, "tags": {"addr:city": "London", "addr:housenumber": "3", "addr:postcode": "NW1 8AL", "addr:street": "Camden Lock Place", "level": "0", "name": "Unique Accessories & Interiors", "shop": "interior_decoration", "wheelchair": "yes"}}, {"type": "node", "id": 4440565067, "lat": 51.5416441, "lon": -0.1458679, "tags": {"addr:city": "London", "addr:housenumber": "200a\u2013200b", "addr:postcode": "NW1 8AB", "addr:street": "Chalk Farm Road", "level": "0", "name": "The Oddballs Juggling Company", "shop": "toys", "website": "https://www.oddballs.co.uk/"}}, {"type": "node", "id": 4440565068, "lat": 51.5413936, "lon": -0.1454831, "tags": {"addr:city": "London", "addr:housenumber": "9\u201310", "addr:postcode": "NW1 8AL", "addr:street": "Camden Lock Place", "level": "1", "name": "Mr Postman", "shop": "clothes", "website": "http://camberrylondon.com/", "wheelchair": "yes"}}, {"type": "node", "id": 4440565069, "lat": 51.5414866, "lon": -0.1456457, "tags": {"addr:city": "London", "addr:housenumber": "6b", "addr:postcode": "NW1 8AL", "addr:street": "Camden Lock Place", "level": "1", "name": "Lorarty Jewellery", "shop": "jewelry", "wheelchair": "yes"}}, {"type": "node", "id": 4440565070, "lat": 51.541517, "lon": -0.1456848, "tags": {"addr:city": "London", "addr:housenumber": "6a", "addr:postcode": "NW1 8AL", "addr:street": "Camden Lock Place", "level": "1", "name": "Leatherbound Partners", "shop": "craft"}}, {"type": "node", "id": 4440565071, "lat": 51.5415499, "lon": -0.145734, "tags": {"addr:city": "London", "addr:housenumber": "5", "addr:postcode": "NW1 8AL", "addr:street": "Camden Lock Place", "level": "1", "name": "Last Fashion", "shop": "clothes", "wheelchair": "yes"}}, {"type": "node", "id": 4440565072, "lat": 51.5414443, "lon": -0.1455637, "tags": {"addr:city": "London", "addr:housenumber": "8", "addr:postcode": "NW1 8AL", "addr:street": "Camden Lock Place", "level": "1", "name": "Chaboba", "shop": "tea", "website": "https://www.chaboba.co.uk/", "wheelchair": "yes"}}, {"type": "node", "id": 4440565073, "lat": 51.5415811, "lon": -0.1458033, "tags": {"addr:city": "London", "addr:housenumber": "4", "addr:postcode": "NW1 8AL", "addr:street": "Camden Lock Place", "level": "1", "name": "Araucaria", "shop": "craft", "website": "https://araucaria.co.uk/"}}, {"type": "node", "id": 4440565074, "lat": 51.5415565, "lon": -0.1460659, "tags": {"addr:city": "London", "addr:housenumber": "19", "addr:postcode": "NW1 8AL", "addr:street": "Camden Lock Place", "level": "1", "name": "Kikiyo", "shop": "craft", "website": "https://kikiyo.co.uk/"}}, {"type": "node", "id": 4440565075, "lat": 51.5415225, "lon": -0.146129, "tags": {"addr:city": "London", "addr:housenumber": "18", "addr:postcode": "NW1 8AL", "addr:street": "Camden Lock Place", "level": "1", "name": "Camden Guitar", "shop": "musical_instrument", "website": "https://camdenguitars.co.uk/", "wheelchair": "yes"}}, {"type": "node", "id": 4440565076, "lat": 51.5414238, "lon": -0.1460725, "tags": {"addr:city": "London", "addr:housenumber": "16", "addr:postcode": "NW1 8AL", "addr:street": "Camden Lock Place", "contact:facebook": "https://www.facebook.com/Forms-268252603263380/", "level": "1", "name": "Forms", "shop": "accessories"}}, {"type": "node", "id": 4440565077, "lat": 51.5413975, "lon": -0.1460416, "tags": {"addr:city": "London", "addr:housenumber": "17", "addr:postcode": "NW1 8AL", "addr:street": "Camden Lock Place", "level": "1", "name": "Unique London", "shop": "clothes"}}, {"type": "node", "id": 4440565078, "lat": 51.5413825, "lon": -0.1459464, "tags": {"addr:city": "London", "addr:housenumber": "12", "addr:postcode": "NW1 8AL", "addr:street": "Camden Lock Place", "level": "1", "name": "Magnartec", "shop": "craft"}}, {"type": "node", "id": 4440565079, "lat": 51.5415293, "lon": -0.1461027, "tags": {"addr:city": "London", "addr:housenumber": "31", "addr:postcode": "NW1 8AL", "addr:street": "Camden Lock Place", "level": "2", "name": "Miss L Fire Boutique", "shop": "clothes", "website": "https://misslfire.com/", "wheelchair": "yes"}}, {"type": "node", "id": 4440565080, "lat": 51.54157, "lon": -0.145975, "tags": {"addr:city": "London", "addr:housenumber": "30b", "addr:postcode": "NW1 8AL", "addr:street": "Camden Lock Place", "level": "2", "name": "Tea and Crafting", "shop": "craft", "website": "https://www.teaandcrafting.co.uk/"}}, {"type": "node", "id": 4440565081, "lat": 51.5415516, "lon": -0.145904, "tags": {"addr:city": "London", "addr:housenumber": "30c", "addr:postcode": "NW1 8AL", "addr:street": "Camden Lock Place", "level": "2", "name": "Access All Areas", "shop": "ticket", "website": "https://accessallareas.org/"}}, {"type": "node", "id": 4440565082, "lat": 51.5415703, "lon": -0.145866, "tags": {"addr:city": "London", "addr:housenumber": "201a", "addr:postcode": "NW1 8AL", "addr:street": "Camden Lock Place", "level": "2", "name": "Natural Health", "shop": "yes"}}, {"type": "node", "id": 4440565083, "lat": 51.5413717, "lon": -0.1464004, "tags": {"addr:city": "London", "addr:housenumber": "51", "addr:postcode": "NW1 8AF", "addr:street": "Camden Lock Place", "level": "0", "name": "Aries", "shop": "clothes"}}, {"type": "node", "id": 4440565084, "lat": 51.5413835, "lon": -0.1462842, "tags": {"access": "permissive", "amenity": "toilets", "female": "yes", "level": "1", "operator": "Camden Market"}}, {"type": "node", "id": 4440565085, "lat": 51.5413747, "lon": -0.1463063, "tags": {"amenity": "toilets", "level": "1", "male": "yes", "operator": "Camden Market"}}, {"type": "node", "id": 4440565086, "lat": 51.5413676, "lon": -0.1463293, "tags": {"amenity": "toilets", "changing_table": "yes", "level": "1", "operator": "Camden Market", "unisex": "yes"}}, {"type": "node", "id": 4440565087, "lat": 51.5413566, "lon": -0.1463691, "tags": {"addr:city": "London", "addr:housenumber": "93", "addr:postcode": "NW1 8AF", "addr:street": "West Yard, Camden Lock Place", "level": "1", "name": "Whoops", "shop": "clothes", "website": "http://whoopskids.com/"}}, {"type": "node", "id": 4440565088, "lat": 51.5412906, "lon": -0.1466415, "tags": {"addr:city": "London", "addr:housenumber": "90\u201392", "addr:postcode": "NW1 8AF", "addr:street": "West Yard, Camden Lock Place", "name": "Yumchaa Teashop", "shop": "tea"}}, {"type": "node", "id": 4440568689, "lat": 51.5413352, "lon": -0.146263, "tags": {"addr:city": "London", "addr:housenumber": "95\u201396", "addr:postcode": "NW1 8AF", "addr:street": "West Yard, Camden Lock Place", "level": "2", "name": "TILT Professional Makeup", "shop": "beauty", "website": "https://tiltmakeup.com/"}}, {"type": "node", "id": 4478899791, "lat": 51.541035, "lon": -0.1431671, "tags": {"amenity": "bicycle_rental", "bicycle_rental": "docking_station", "brand": "Santander Cycles", "brand:wikidata": "Q807961", "capacity": "21", "local": "Camden Town", "name": "Hawley Crescent", "network": "tfl_cycle_hire", "official_name": "Hawley Crescent, Camden Town", "official_ref": "713", "operator": "Serco", "operator:wikidata": "Q499104"}}, {"type": "node", "id": 4483141555, "lat": 51.53923, "lon": -0.1427073}, {"type": "node", "id": 4483141556, "lat": 51.5392334, "lon": -0.1425645}, {"type": "node", "id": 4483141557, "lat": 51.5392956, "lon": -0.1425459}, {"type": "node", "id": 4483141558, "lat": 51.5392992, "lon": -0.14259}, {"type": "node", "id": 4483141559, "lat": 51.5393151, "lon": -0.142588}, {"type": "node", "id": 4483141560, "lat": 51.5393259, "lon": -0.1427093}, {"type": "node", "id": 4483141562, "lat": 51.5394386, "lon": -0.142228}, {"type": "node", "id": 4483141563, "lat": 51.5394425, "lon": -0.1422547}, {"type": "node", "id": 4483141565, "lat": 51.5394998, "lon": -0.1424863}, {"type": "node", "id": 4483141567, "lat": 51.5395094, "lon": -0.1426128}, {"type": "node", "id": 4483141571, "lat": 51.5394979, "lon": -0.1421005}, {"type": "node", "id": 4483141572, "lat": 51.5395044, "lon": -0.1426356}, {"type": "node", "id": 4483141573, "lat": 51.5395086, "lon": -0.142935}, {"type": "node", "id": 4483141575, "lat": 51.5395389, "lon": -0.1421677}, {"type": "node", "id": 4483141576, "lat": 51.5395576, "lon": -0.142677}, {"type": "node", "id": 4483141577, "lat": 51.5395195, "lon": -0.1426651}, {"type": "node", "id": 4483141581, "lat": 51.5396277, "lon": -0.1427091}, {"type": "node", "id": 4483141582, "lat": 51.539656, "lon": -0.1427268}, {"type": "node", "id": 4483141583, "lat": 51.5396965, "lon": -0.1428739}, {"type": "node", "id": 4483141584, "lat": 51.5397018, "lon": -0.1430937}, {"type": "node", "id": 4483141586, "lat": 51.5397471, "lon": -0.1429008}, {"type": "node", "id": 4483141587, "lat": 51.5397901, "lon": -0.1429296}, {"type": "node", "id": 4483141588, "lat": 51.5397822, "lon": -0.143161}, {"type": "node", "id": 4483142128, "lat": 51.5383945, "lon": -0.1430461}, {"type": "node", "id": 4483142131, "lat": 51.538408, "lon": -0.1434282}, {"type": "node", "id": 4483142132, "lat": 51.5384113, "lon": -0.1435764}, {"type": "node", "id": 4483142133, "lat": 51.5384121, "lon": -0.1435952}, {"type": "node", "id": 4483142137, "lat": 51.5384313, "lon": -0.1434611}, {"type": "node", "id": 4483142138, "lat": 51.5384401, "lon": -0.1435161}, {"type": "node", "id": 4483142142, "lat": 51.5384463, "lon": -0.143265}, {"type": "node", "id": 4483142150, "lat": 51.5384562, "lon": -0.1432225}, {"type": "node", "id": 4483142151, "lat": 51.5384576, "lon": -0.1430262}, {"type": "node", "id": 4483142155, "lat": 51.5384855, "lon": -0.1433099}, {"type": "node", "id": 4483142157, "lat": 51.5384947, "lon": -0.1436059}, {"type": "node", "id": 4483142159, "lat": 51.5385026, "lon": -0.1428737}, {"type": "node", "id": 4483142161, "lat": 51.5385121, "lon": -0.1432666}, {"type": "node", "id": 4483142167, "lat": 51.5385515, "lon": -0.1429127}, {"type": "node", "id": 4483142169, "lat": 51.5385555, "lon": -0.1436707}, {"type": "node", "id": 4483142172, "lat": 51.5385738, "lon": -0.1432035}, {"type": "node", "id": 4483142175, "lat": 51.5386097, "lon": -0.1421447}, {"type": "node", "id": 4483142177, "lat": 51.5385969, "lon": -0.1429488}, {"type": "node", "id": 4483142180, "lat": 51.538606, "lon": -0.1431372}, {"type": "node", "id": 4483142394, "lat": 51.5386869, "lon": -0.1428163}, {"type": "node", "id": 4483142396, "lat": 51.5386966, "lon": -0.1431895}, {"type": "node", "id": 4483142399, "lat": 51.5387134, "lon": -0.142715}, {"type": "node", "id": 4483142408, "lat": 51.5387712, "lon": -0.141923}, {"type": "node", "id": 4483142411, "lat": 51.5387661, "lon": -0.1428724}, {"type": "node", "id": 4483142412, "lat": 51.538791, "lon": -0.142763}, {"type": "node", "id": 4483142415, "lat": 51.5388611, "lon": -0.1422526}, {"type": "node", "id": 4483142416, "lat": 51.5388661, "lon": -0.1420898}, {"type": "node", "id": 4483142417, "lat": 51.5388695, "lon": -0.142022}, {"type": "node", "id": 4483142419, "lat": 51.5388736, "lon": -0.1419491}, {"type": "node", "id": 4483142420, "lat": 51.5388681, "lon": -0.1429587, "tags": {"note": "Newspaper stand", "shop": "newsagent"}}, {"type": "node", "id": 4483142429, "lat": 51.5389639, "lon": -0.1421009}, {"type": "node", "id": 4483142430, "lat": 51.5389649, "lon": -0.1420452}, {"type": "node", "id": 4483142431, "lat": 51.538966, "lon": -0.1419579}, {"type": "node", "id": 4483142490, "lat": 51.5397914, "lon": -0.1430309}, {"type": "node", "id": 4483142491, "lat": 51.539801, "lon": -0.1430732}, {"type": "node", "id": 4483142492, "lat": 51.5398118, "lon": -0.1429438}, {"type": "node", "id": 4483142493, "lat": 51.5398056, "lon": -0.1430504}, {"type": "node", "id": 4483142494, "lat": 51.539874, "lon": -0.1431543}, {"type": "node", "id": 4483142497, "lat": 51.539889, "lon": -0.1431623}, {"type": "node", "id": 4483854692, "lat": 51.5379071, "lon": -0.1445404, "tags": {"drink:juice": "yes", "name": "Juice Bar", "note": "Part of Whole Foods Market. I'm not entirely sure whether these are the best tags for this establishment", "shop": "beverages"}}, {"type": "node", "id": 4483854696, "lat": 51.5375211, "lon": -0.144329}, {"type": "node", "id": 4483854698, "lat": 51.537633, "lon": -0.1440147}, {"type": "node", "id": 4483854700, "lat": 51.5376723, "lon": -0.1439051}, {"type": "node", "id": 4483854705, "lat": 51.5377269, "lon": -0.1445152}, {"type": "node", "id": 4483854723, "lat": 51.5378316, "lon": -0.1440504}, {"type": "node", "id": 4483854724, "lat": 51.5378369, "lon": -0.1440553}, {"type": "node", "id": 4483854725, "lat": 51.5378754, "lon": -0.1440211}, {"type": "node", "id": 4483854727, "lat": 51.5378967, "lon": -0.1440614}, {"type": "node", "id": 4483854728, "lat": 51.537915, "lon": -0.1438358}, {"type": "node", "id": 4483854729, "lat": 51.5379166, "lon": -0.1445924}, {"type": "node", "id": 4483854730, "lat": 51.5379272, "lon": -0.1438466}, {"type": "node", "id": 4483854731, "lat": 51.5379354, "lon": -0.1438539}, {"type": "node", "id": 4483854732, "lat": 51.5379484, "lon": -0.1441595}, {"type": "node", "id": 4483854733, "lat": 51.53797, "lon": -0.1437258}, {"type": "node", "id": 4483854734, "lat": 51.537978, "lon": -0.1437339}, {"type": "node", "id": 4483854738, "lat": 51.5380199, "lon": -0.144193},